tipo_evento,departamento,codigo_dane_departamento,municipio,codigo_dane_municipio,a_o,mes,evento,tipo_lugar,tipo_area,latitud_cabecera,longitud_cabecera,sitio,geocoded_column
Sospecha de campo minado,SANTANDER,68,SAN VICENTE DE CHUCURÍ,68689,2014,10,Incidente,Fincas,Rural,6.84073,-73.53009,Sospecha De Campo Minado,"{'type': 'Point', 'coordinates': [-73.53009, 6.84073]}"
Sospecha de campo minado,SANTANDER,68,EL CARMEN,68235,2013,9,Incidente,Campo,Rural,6.72416,-73.60923,Sospecha De Campo Minado,"{'type': 'Point', 'coordinates': [-73.60923, 6.72416]}"
Sospecha de campo minado,ANTIOQUIA,5,GRANADA,5313,2015,4,Incidente,Campo,Rural,6.11738,-75.10259,Sospecha De Campo Minado,"{'type': 'Point', 'coordinates': [-75.10259, 6.11738]}"
Desminado militar en operaciones,ARAUCA,81,ARAUQUITA,81065,2015,5,Incidente,Oleoductos,Rural,7.010011111,-71.44830556,Vereda Peralonso,"{'type': 'Point', 'coordinates': [-71.44830556, 7.010011111]}"
Accidente por MAP,NORTE DE SANTANDER,54,TIBÚ,54810,2015,5,Accidente,Sin informacion,Rural,8.84638888888889,-72.7997222222222,Sector La Virgen,"{'type': 'Point', 'coordinates': [-72.7997222222222, 8.84638888888889]}"
Desminado militar en operaciones,PUTUMAYO,86,PUERTO ASÍS,86568,2015,3,Incidente,Sin informacion,Rural,0.5036111111,-76.45666667,Vereda El Aguila,"{'type': 'Point', 'coordinates': [-76.45666667, 0.5036111111]}"
Desminado militar en operaciones,GUAVIARE,95,CALAMAR,95015,2015,4,Incidente,Sin informacion,Rural,1.9616666667,-72.65333333,Puente Que Comunica Las Instalaciones Del Batallon,"{'type': 'Point', 'coordinates': [-72.65333333, 1.9616666667]}"
Desminado militar en operaciones,NORTE DE SANTANDER,54,EL TARRA,54250,2015,4,Incidente,Sin informacion,Rural,8.6213888889,-73.10138889,Vereda Divino Niño,"{'type': 'Point', 'coordinates': [-73.10138889, 8.6213888889]}"
Desminado militar en operaciones,META,50,MESETAS,50330,2010,3,Incidente,Sin informacion,Rural,3.315556,-74.099167,Guadualeja,"{'type': 'Point', 'coordinates': [-74.099167, 3.315556]}"
Desminado militar en operaciones,ANTIOQUIA,5,APARTADÓ,5045,2010,3,Incidente,Sin informacion,Rural,7.895833,-76.572778,La Vereda Guineo Alto,"{'type': 'Point', 'coordinates': [-76.572778, 7.895833]}"
Incautaciones,HUILA,41,COLOMBIA,41206,2009,10,Incidente,Caleta,Rural,3.3025,-74.778333,La Holanda,"{'type': 'Point', 'coordinates': [-74.778333, 3.3025]}"
Desminado militar en operaciones,HUILA,41,NEIVA,41001,2010,3,Incidente,Sin informacion,Rural,2.936944,-75.045,La Vegalarga,"{'type': 'Point', 'coordinates': [-75.045, 2.936944]}"
Desminado militar en operaciones,PUTUMAYO,86,ORITO,86320,2009,10,Incidente,Sin informacion,Rural,0.650833,-77.141111,Las Ventanas,"{'type': 'Point', 'coordinates': [-77.141111, 0.650833]}"
Desminado militar en operaciones,TOLIMA,73,ORTEGA,73504,2008,6,Incidente,Sin informacion,Rural,3.947778,-75.383056,Vereda San Miguel,"{'type': 'Point', 'coordinates': [-75.383056, 3.947778]}"
Desminado militar en operaciones,NORTE DE SANTANDER,54,LABATECA,54377,2009,10,Incidente,Sin informacion,Rural,7.271944,-72.547222,El Tincala,"{'type': 'Point', 'coordinates': [-72.547222, 7.271944]}"
Desminado militar en operaciones,CAQUETA,18,SAN VICENTE DEL CAGUÁN,18753,2009,4,Incidente,Sin informacion,Rural,2.613889,-74.694167,El Rio Coreguaje,"{'type': 'Point', 'coordinates': [-74.694167, 2.613889]}"
Desminado militar en operaciones,CORDOBA,23,TIERRALTA,23807,2009,4,Incidente,Sin informacion,Rural,7.826667,-76.037778,El Manso,"{'type': 'Point', 'coordinates': [-76.037778, 7.826667]}"
Desminado militar en operaciones,ANTIOQUIA,5,SAN FRANCISCO,5652,2009,3,Incidente,Sin informacion,Rural,5.948056,-75.055833,La Vereda El Boqueron,"{'type': 'Point', 'coordinates': [-75.055833, 5.948056]}"
Desminado militar en operaciones,HUILA,41,COLOMBIA,41206,2009,1,Incidente,Sin informacion,Rural,3.731944,-74.531389,La Vereda Tapiales,"{'type': 'Point', 'coordinates': [-74.531389, 3.731944]}"
Desminado militar en operaciones,CHOCO,27,QUIBDÓ,27001,2009,9,Incidente,Sin informacion,Rural,5.695556,-76.661944,El Malecon,"{'type': 'Point', 'coordinates': [-76.661944, 5.695556]}"
Desminado militar en operaciones,META,50,URIBE,50370,2009,9,Incidente,Sin informacion,Rural,3.023056,-74.233611,El Paraiso,"{'type': 'Point', 'coordinates': [-74.233611, 3.023056]}"
Desminado militar en operaciones,ANTIOQUIA,5,SAN CARLOS,5649,2009,9,Incidente,Sin informacion,Rural,6.179167,-74.901111,La Risaralda,"{'type': 'Point', 'coordinates': [-74.901111, 6.179167]}"
Desminado militar en operaciones,ANTIOQUIA,5,CÁCERES,5120,2009,8,Incidente,Sin informacion,Rural,7.469167,-75.148056,El Peladero,"{'type': 'Point', 'coordinates': [-75.148056, 7.469167]}"
Desminado militar en operaciones,META,50,URIBE,50370,2009,6,Incidente,Sin informacion,Rural,2.863611,-74.592778,El Leyva,"{'type': 'Point', 'coordinates': [-74.592778, 2.863611]}"
Desminado militar en operaciones,NARIÑO,52,POLICARPA,52540,2011,6,Incidente,Sin informacion,Rural,1.832778,-77.547222,Corregimiento Santacruz,"{'type': 'Point', 'coordinates': [-77.547222, 1.832778]}"
Desminado militar en operaciones,CAQUETA,18,MONTAÑITA,18410,2011,6,Incidente,Sin informacion,Rural,1.044444,-75.144444,Vereda Alto Cuarenta,"{'type': 'Point', 'coordinates': [-75.144444, 1.044444]}"
Desminado militar en operaciones,HUILA,41,COLOMBIA,41206,2011,6,Incidente,Sin informacion,Rural,3.163889,-74.804444,La Hondita,"{'type': 'Point', 'coordinates': [-74.804444, 3.163889]}"
Desminado militar en operaciones,CAQUETA,18,SOLANO,18756,2011,6,Incidente,Sin informacion,Rural,1.024444,-75.152222,Vereda El Jardin,"{'type': 'Point', 'coordinates': [-75.152222, 1.024444]}"
Desminado militar en operaciones,CAQUETA,18,SAN VICENTE DEL CAGUÁN,18753,2011,6,Incidente,Sin informacion,Rural,2.513333,-74.662222,Area General Honduras,"{'type': 'Point', 'coordinates': [-74.662222, 2.513333]}"
Desminado militar en operaciones,TOLIMA,73,PLANADAS,73555,2011,6,Incidente,Sin informacion,Rural,3.017222,-75.783611,Cerro San Miguel,"{'type': 'Point', 'coordinates': [-75.783611, 3.017222]}"
Desminado militar en operaciones,BOLIVAR,13,MONTECRISTO,13458,2011,6,Incidente,Sin informacion,Rural,7.826944,-74.453056,Las Vegas,"{'type': 'Point', 'coordinates': [-74.453056, 7.826944]}"
Desminado militar en operaciones,TOLIMA,73,PLANADAS,73555,2011,5,Incidente,Sin informacion,Rural,2.983889,-75.833611,Vereda Lejanias,"{'type': 'Point', 'coordinates': [-75.833611, 2.983889]}"
Desminado militar en operaciones,META,50,VISTAHERMOSA,50711,2011,5,Incidente,Sin informacion,Rural,2.878333,-73.79,Sector Agua Linda,"{'type': 'Point', 'coordinates': [-73.79, 2.878333]}"
Desminado militar en operaciones,ANTIOQUIA,5,ANORÍ,5040,2011,5,Incidente,Sin informacion,Rural,7.050833,-75.150278,Cabecera Municipal,"{'type': 'Point', 'coordinates': [-75.150278, 7.050833]}"
Desminado militar en operaciones,ANTIOQUIA,5,ITUANGO,5361,2011,5,Incidente,Sin informacion,Rural,7.325556,-75.731667,Vereda El Olivar,"{'type': 'Point', 'coordinates': [-75.731667, 7.325556]}"
Desminado militar en operaciones,NORTE DE SANTANDER,54,CÚCUTA,54001,2011,5,Incidente,Sin informacion,Rural,8.349444,-72.493056,Vereda El Recreo,"{'type': 'Point', 'coordinates': [-72.493056, 8.349444]}"
Desminado militar en operaciones,PUTUMAYO,86,PUERTO ASÍS,86568,2011,5,Incidente,Sin informacion,Rural,0.485,-76.556389,Vereda Remolinos,"{'type': 'Point', 'coordinates': [-76.556389, 0.485]}"
Desminado militar en operaciones,CESAR,20,SAN DIEGO,20750,2011,4,Incidente,Sin informacion,Rural,10.186389,-73.203889,El Tocaimo,"{'type': 'Point', 'coordinates': [-73.203889, 10.186389]}"
Sospecha de campo minado,ANTIOQUIA,5,GRANADA,5313,2010,6,Incidente,Sin informacion,Rural,6.07305,-75.10152,"Vereda La Estrella,Sector La Escuela","{'type': 'Point', 'coordinates': [-75.10152, 6.07305]}"
Sospecha de campo minado,ANTIOQUIA,5,SONSÓN,5756,2010,6,Incidente,Sin informacion,Rural,5.836216,-75.196339,Los Alumbres Surrumbal Rio Manizales,"{'type': 'Point', 'coordinates': [-75.196339, 5.836216]}"
Sospecha de campo minado,ANTIOQUIA,5,CARMEN DE VIBORAL,5148,2009,12,Incidente,Sin informacion,Rural,5.997125,-75.310893,El Acueducto,"{'type': 'Point', 'coordinates': [-75.310893, 5.997125]}"
Desminado militar en operaciones,CAUCA,19,BALBOA,19075,2023,9,Incidente,Sin informacion,Rural,2.07388888888889,-77.2580555555556,EL NARANJAL,"{'type': 'Point', 'coordinates': [-77.2580555555556, 2.07388888888889]}"
Sospecha de campo minado,NARIÑO,52,TUMACO,52835,2014,1,Incidente,Sin informacion,Rural,1.338756255,-78.656243702,MATA DE PLATANO,"{'type': 'Point', 'coordinates': [-78.656243702, 1.338756255]}"
Sospecha de campo minado,NARIÑO,52,BARBACOAS,52079,2013,1,Incidente,Sin informacion,Rural,1.264573033,-78.564293642,MUNGUI 1,"{'type': 'Point', 'coordinates': [-78.564293642, 1.264573033]}"
Accidente por MAP,PUTUMAYO,86,PUERTO LEGUÍZAMO,86573,2023,10,Accidente,Campo,Rural,-0.17775748923,-74.7814805091,VEREDA EL DIAMANTE,"{'type': 'Point', 'coordinates': [-74.7814805091, -0.17775748923]}"
Sospecha de campo minado,BOLIVAR,13,EL CARMEN DE BOLÍVAR,13244,2009,12,Incidente,Sin informacion,Rural,9.67889,-75.34044,Finca Ovejero,"{'type': 'Point', 'coordinates': [-75.34044, 9.67889]}"
Sospecha de campo minado,NARIÑO,52,BARBACOAS,52079,2009,12,Incidente,Sin informacion,Rural,1.63568,-78.25,La Cuchilla,"{'type': 'Point', 'coordinates': [-78.25, 1.63568]}"
Desminado militar en operaciones,META,50,URIBE,50370,2009,8,Incidente,Sin informacion,Rural,3.286389,-74.339167,El Diamante,"{'type': 'Point', 'coordinates': [-74.339167, 3.286389]}"
Sospecha de campo minado,BOLIVAR,13,EL CARMEN DE BOLÍVAR,13244,2009,12,Incidente,Sin informacion,Rural,9.57969,-75.03735,Vereda De Morrocoy,"{'type': 'Point', 'coordinates': [-75.03735, 9.57969]}"
Desminado militar en operaciones,ANTIOQUIA,5,DABEIBA,5234,2011,4,Incidente,Sin informacion,Rural,7.150833,-76.318056,Sector El Meson,"{'type': 'Point', 'coordinates': [-76.318056, 7.150833]}"
Desminado militar en operaciones,LA GUAJIRA,44,FONSECA,44279,2011,4,Incidente,Sin informacion,Rural,10.765833,-72.773611,San Luis,"{'type': 'Point', 'coordinates': [-72.773611, 10.765833]}"
Desminado militar en operaciones,CAQUETA,18,MILÁN,18460,2011,4,Incidente,Sin informacion,Rural,1.084167,-75.238056,Las Margaritas,"{'type': 'Point', 'coordinates': [-75.238056, 1.084167]}"
Desminado militar en operaciones,CASANARE,85,SÁCAMA,85315,2011,3,Incidente,Sin informacion,Rural,6.058056,-72.113056,Barronegro,"{'type': 'Point', 'coordinates': [-72.113056, 6.058056]}"
Desminado militar en operaciones,ANTIOQUIA,5,BRICEÑO,5107,2011,3,Incidente,Sin informacion,Rural,7.077778,-75.622778,La Mina,"{'type': 'Point', 'coordinates': [-75.622778, 7.077778]}"
Desminado militar en operaciones,META,50,MESETAS,50330,2011,3,Incidente,Sin informacion,Rural,2.916389,-74.089722,Palmeras,"{'type': 'Point', 'coordinates': [-74.089722, 2.916389]}"
Desminado militar en operaciones,PUTUMAYO,86,PUERTO ASÍS,86568,2011,3,Incidente,Sin informacion,Rural,0.316111,-76.596389,La Cumbre,"{'type': 'Point', 'coordinates': [-76.596389, 0.316111]}"
Desminado militar en operaciones,HUILA,41,YAGUARÁ,41885,2011,3,Incidente,Sin informacion,Rural,2.606111,-75.476944,Vilu,"{'type': 'Point', 'coordinates': [-75.476944, 2.606111]}"
Desminado militar en operaciones,CAQUETA,18,FLORENCIA,18001,2009,8,Incidente,Sin informacion,Rural,1.863056,-75.514167,Año Nuevo,"{'type': 'Point', 'coordinates': [-75.514167, 1.863056]}"
Desminado militar en operaciones,CAQUETA,18,MONTAÑITA,18410,2009,8,Incidente,Sin informacion,Rural,1.276944,-75.215278,La Argelia,"{'type': 'Point', 'coordinates': [-75.215278, 1.276944]}"
Desminado militar en operaciones,META,50,EL DORADO,50270,2011,2,Incidente,Sin informacion,Rural,3.700278,-73.853889,La Vereda San Pedro,"{'type': 'Point', 'coordinates': [-73.853889, 3.700278]}"
Desminado militar en operaciones,VALLE DEL CAUCA,76,FLORIDA,76275,2011,2,Incidente,Sin informacion,Rural,3.320833,-76.131944,Aguitas,"{'type': 'Point', 'coordinates': [-76.131944, 3.320833]}"
Desminado militar en operaciones,ANTIOQUIA,5,TARAZÁ,5790,2011,2,Incidente,Sin informacion,Rural,7.467778,-75.43,Q. San Julian,"{'type': 'Point', 'coordinates': [-75.43, 7.467778]}"
Desminado militar en operaciones,NORTE DE SANTANDER,54,SAN CALIXTO,54670,2011,2,Incidente,Sin informacion,Rural,8.454167,-73.214722,San Jeronimo,"{'type': 'Point', 'coordinates': [-73.214722, 8.454167]}"
Desminado militar en operaciones,PUTUMAYO,86,SAN MIGUEL,86757,2011,2,Incidente,Sin informacion,Rural,0.278611,-76.885556,El Bajo Amaron,"{'type': 'Point', 'coordinates': [-76.885556, 0.278611]}"
Desminado militar en operaciones,META,50,URIBE,50370,2011,2,Incidente,Sin informacion,Rural,2.968889,-74.290833,La Vereda La Palestina,"{'type': 'Point', 'coordinates': [-74.290833, 2.968889]}"
Desminado militar en operaciones,ARAUCA,81,TAME,81794,2011,1,Incidente,Sin informacion,Rural,6.390278,-71.888056,Pte Tame,"{'type': 'Point', 'coordinates': [-71.888056, 6.390278]}"
Desminado militar en operaciones,ANTIOQUIA,5,ANORÍ,5040,2011,1,Incidente,Sin informacion,Rural,7.076111,-75.138889,La Vereda Arenales,"{'type': 'Point', 'coordinates': [-75.138889, 7.076111]}"
Desminado militar en operaciones,ANTIOQUIA,5,CAMPAMENTO,5134,2011,1,Incidente,Sin informacion,Rural,7.121944,-75.325556,La Vereda El Limon,"{'type': 'Point', 'coordinates': [-75.325556, 7.121944]}"
Desminado militar en operaciones,TOLIMA,73,PLANADAS,73555,2011,1,Incidente,Sin informacion,Rural,2.993333,-75.914722,La Vereda Marquetalia,"{'type': 'Point', 'coordinates': [-75.914722, 2.993333]}"
Desminado militar en operaciones,CAQUETA,18,SAN VICENTE DEL CAGUÁN,18753,2011,1,Incidente,Sin informacion,Rural,2.596389,-74.854444,Alto Avance,"{'type': 'Point', 'coordinates': [-74.854444, 2.596389]}"
Accidente por MAP,ANTIOQUIA,5,SAN LUIS,5660,2003,11,Accidente,Sin informacion,Rural,6.042723,-74.994899,Sitio Las Palmas,"{'type': 'Point', 'coordinates': [-74.994899, 6.042723]}"
Accidente por MAP,CALDAS,17,SAMANÁ,17662,2007,1,Accidente,Sin informacion,Rural,5.653056,-75.036389,Sin información,"{'type': 'Point', 'coordinates': [-75.036389, 5.653056]}"
Accidente por MAP,CALDAS,17,SAMANÁ,17662,2006,11,Accidente,Sin informacion,Rural,5.593889,-75.013056,Sitio Quiebra Del Abejorro,"{'type': 'Point', 'coordinates': [-75.013056, 5.593889]}"
Accidente por MAP,CHOCO,27,EL CARMEN DEL ATRATO,27245,2005,5,Accidente,Sin informacion,Rural,5.892603,-76.145891,Sitio La Puria,"{'type': 'Point', 'coordinates': [-76.145891, 5.892603]}"
Accidente por MAP,VALLE DEL CAUCA,76,FLORIDA,76275,2010,4,Accidente,Sin informacion,Rural,3.266388888888889,-76.11583333333333,Vereda Cajones,"{'type': 'Point', 'coordinates': [-76.11583333333333, 3.266388888888889]}"
Accidente por MAP,META,50,MESETAS,50330,2010,4,Accidente,Sin informacion,Rural,3.235,-74.07472222222222,Las Colinas,"{'type': 'Point', 'coordinates': [-74.07472222222222, 3.235]}"
Accidente por MAP,VALLE DEL CAUCA,76,FLORIDA,76275,2010,5,Accidente,Sin informacion,Rural,3.2519444444444443,-76.10861111111112,Vereda Los Alpes,"{'type': 'Point', 'coordinates': [-76.10861111111112, 3.2519444444444443]}"
Accidente por MAP,BOLIVAR,13,CANTAGALLO,13160,2010,3,Accidente,Sin informacion,Rural,7.379167,-73.918975,Sin información,"{'type': 'Point', 'coordinates': [-73.918975, 7.379167]}"
Accidente por MAP,HUILA,41,SAN AGUSTÍN,41668,2010,5,Accidente,Sin informacion,Rural,1.815,-76.35277777777777,Vereda La Esperanza,"{'type': 'Point', 'coordinates': [-76.35277777777777, 1.815]}"
Accidente por MAP,VALLE DEL CAUCA,76,PRADERA,76563,2010,6,Accidente,Sin informacion,Rural,3.388888888888889,-76.14611111111111,Cuchilla La Cristalina,"{'type': 'Point', 'coordinates': [-76.14611111111111, 3.388888888888889]}"
Accidente por MAP,GUAVIARE,95,SAN JOSÉ DEL GUAVIARE,95001,2010,6,Accidente,Sin informacion,Rural,2.2830555555555554,-73.64138888888888,Vereda Peñas Rojas,"{'type': 'Point', 'coordinates': [-73.64138888888888, 2.2830555555555554]}"
Accidente por MAP,CAQUETA,18,SAN VICENTE DEL CAGUÁN,18753,2011,1,Accidente,Campo,Rural,2.563888888888889,-74.84138888888889,Sin información,"{'type': 'Point', 'coordinates': [-74.84138888888889, 2.563888888888889]}"
Accidente por MAP,CAQUETA,18,PUERTO RICO,18592,2011,2,Accidente,Sin informacion,Rural,2.3161111111111112,-75.16666666666667,Sin información,"{'type': 'Point', 'coordinates': [-75.16666666666667, 2.3161111111111112]}"
Accidente por MAP,CAQUETA,18,PUERTO RICO,18592,2009,4,Accidente,Sin informacion,Rural,1.9325,-75.12861111111111,El Desquite,"{'type': 'Point', 'coordinates': [-75.12861111111111, 1.9325]}"
Accidente por MAP,NORTE DE SANTANDER,54,SAN CALIXTO,54670,2009,5,Accidente,Cerros,Rural,8.4625,-73.08611111111111,Vereda San Ignacio,"{'type': 'Point', 'coordinates': [-73.08611111111111, 8.4625]}"
Accidente por MAP,ANTIOQUIA,5,VALDIVIA,5854,2009,4,Accidente,Sin informacion,Rural,7.165222,-75.438081,Sin información,"{'type': 'Point', 'coordinates': [-75.438081, 7.165222]}"
Accidente por MAP,ANTIOQUIA,5,CÁCERES,5120,2009,7,Accidente,Sendero,Rural,7.437222222222222,-75.19916666666667,Cerro Alto Dolores,"{'type': 'Point', 'coordinates': [-75.19916666666667, 7.437222222222222]}"
Accidente por MAP,NARIÑO,52,EL CHARCO,52250,2009,4,Accidente,Sin informacion,Rural,2.336666666666667,-78.12083333333334,Río Tapaje,"{'type': 'Point', 'coordinates': [-78.12083333333334, 2.336666666666667]}"
Accidente por MAP,CHOCO,27,RIOSUCIO,27615,2009,3,Accidente,Sin informacion,Rural,7.437292,-77.111288,Sin información,"{'type': 'Point', 'coordinates': [-77.111288, 7.437292]}"
Accidente por MAP,CAUCA,19,BUENOS AIRES,19110,2009,8,Accidente,Sin informacion,Rural,3.020445833333333,-76.63425,Calle La Línea,"{'type': 'Point', 'coordinates': [-76.63425, 3.0204458333333335]}"
Accidente por MAP,HUILA,41,ISNOS,41359,2009,8,Accidente,Sin informacion,Rural,2.026666666666667,-76.27083333333333,Paloquemao,"{'type': 'Point', 'coordinates': [-76.27083333333333, 2.026666666666667]}"
Accidente por MAP,BOLIVAR,13,CANTAGALLO,13160,2009,8,Accidente,Sendero,Rural,7.246666666666667,-74.10194444444444,Vereda Lejanias,"{'type': 'Point', 'coordinates': [-74.10194444444444, 7.246666666666667]}"
Accidente por MAP,ANTIOQUIA,5,ITUANGO,5361,2009,3,Accidente,Sin informacion,Rural,7.171637,-75.764403,Vereda El Sinucito,"{'type': 'Point', 'coordinates': [-75.764403, 7.171637]}"
Accidente por MAP,NORTE DE SANTANDER,54,CONVENCIÓN,54206,2009,10,Accidente,Sin informacion,Rural,8.85611111111111,-73.236,Vereda Bohío Santa Fe,"{'type': 'Point', 'coordinates': [-73.236, 8.85611111111111]}"
Accidente por MAP,ANTIOQUIA,5,DABEIBA,5234,2008,7,Accidente,Caminos,Rural,7.1466666666666665,-76.0038888888889,Las Minas,"{'type': 'Point', 'coordinates': [-76.0038888888889, 7.1466666666666665]}"
Accidente por MAP,META,50,EL CASTILLO,50251,2008,9,Accidente,Sin informacion,Rural,3.6666666666666665,-73.94777777777777,Vereda Los Alpes,"{'type': 'Point', 'coordinates': [-73.94777777777777, 3.6666666666666665]}"
Accidente por MAP,CAQUETA,18,SAN VICENTE DEL CAGUÁN,18753,2008,9,Accidente,Sin informacion,Rural,2.667,-74.732,Sin información,"{'type': 'Point', 'coordinates': [-74.732, 2.667]}"
Accidente por MAP,SANTANDER,68,EL PEÑÓN,68250,2004,3,Accidente,Sin informacion,Rural,6.105974444444445,-73.92803083333334,Quebrada Montana,"{'type': 'Point', 'coordinates': [-73.92803083333334, 6.105974444444445]}"
Accidente por MAP,CAUCA,19,EL TAMBO,19256,2007,12,Accidente,Sin informacion,Rural,2.451476,-76.810904,Sin información,"{'type': 'Point', 'coordinates': [-76.810904, 2.451476]}"
Accidente por MAP,NORTE DE SANTANDER,54,LA PLAYA,54398,2007,11,Accidente,Sin informacion,Rural,8.214079,-73.239218,Vereda Guayabón,"{'type': 'Point', 'coordinates': [-73.239218, 8.214079]}"
Accidente por MAP,CAUCA,19,EL TAMBO,19256,2008,1,Accidente,Sin informacion,Rural,2.451476,-76.810904,Sin información,"{'type': 'Point', 'coordinates': [-76.810904, 2.451476]}"
Accidente por MAP,ANTIOQUIA,5,EL BAGRE,5250,2003,4,Accidente,Sin informacion,Rural,7.733,-74.617,Vereda Catalina,"{'type': 'Point', 'coordinates': [-74.617, 7.733]}"
Accidente por MAP,NARIÑO,52,BARBACOAS,52079,2008,9,Accidente,Sin informacion,Rural,1.672216,-78.138537,Sin información,"{'type': 'Point', 'coordinates': [-78.138537, 1.672216]}"
Accidente por MAP,GUAVIARE,95,SAN JOSÉ DEL GUAVIARE,95001,2008,6,Accidente,Sin informacion,Rural,2.564079,-72.640033,Sin información,"{'type': 'Point', 'coordinates': [-72.640033, 2.564079]}"
Accidente por MAP,CAQUETA,18,MONTAÑITA,18410,2009,3,Accidente,en sobre cerca rivera de un rio,Rural,1.49494421255,-75.4630895064,Vereda Las Parcelas,"{'type': 'Point', 'coordinates': [-75.4630895064, 1.49494421255]}"
Accidente por MAP,TOLIMA,73,CHAPARRAL,73168,2009,11,Accidente,Cerros,Rural,3.725251346111111,-75.48449782694445,Peñaranda,"{'type': 'Point', 'coordinates': [-75.48449782694445, 3.725251346111111]}"
Accidente por MAP,BOLIVAR,13,MORALES,13473,1995,4,Accidente,Sin informacion,Rural,8.270279,-73.865805,Sin información,"{'type': 'Point', 'coordinates': [-73.865805, 8.270279]}"
Accidente por MAP,CUNDINAMARCA,25,LA PALMA,25394,2001,10,Accidente,Sin informacion,Rural,5.308,-74.45,Sin información,"{'type': 'Point', 'coordinates': [-74.45, 5.308]}"
Accidente por MAP,CAQUETA,18,SAN VICENTE DEL CAGUÁN,18753,2007,3,Accidente,Sin informacion,Rural,2.625,-74.85,Vereda Santo Domingo,"{'type': 'Point', 'coordinates': [-74.85, 2.625]}"
Accidente por MAP,CUNDINAMARCA,25,GUAYABAL DE SÍQUIMA,25328,2003,4,Accidente,Sin informacion,Rural,4.877547,-74.466984,Mesitas,"{'type': 'Point', 'coordinates': [-74.466984, 4.877547]}"
Accidente por MAP,ANTIOQUIA,5,ZARAGOZA,5895,1994,11,Accidente,Sin informacion,Rural,7.490632,-74.867778,Sitio Arenales,"{'type': 'Point', 'coordinates': [-74.867778, 7.490632]}"
Accidente por MAP,CAQUETA,18,SAN VICENTE DEL CAGUÁN,18753,2007,10,Accidente,Sin informacion,Rural,2.693333,-74.644444,Rio Coreguaje,"{'type': 'Point', 'coordinates': [-74.644444, 2.693333]}"
Accidente por MAP,ANTIOQUIA,5,REMEDIOS,5604,2005,4,Accidente,Sin informacion,Rural,7.168056,-74.578333,Sitio Cañaverales,"{'type': 'Point', 'coordinates': [-74.578333, 7.168056]}"
Desminado militar en operaciones,PUTUMAYO,86,PUERTO ASÍS,86568,2011,1,Incidente,Sin informacion,Rural,0.495833,-76.5175,En Puerto Asis,"{'type': 'Point', 'coordinates': [-76.5175, 0.495833]}"
Accidente por MAP,TOLIMA,73,DOLORES,73236,2004,5,Accidente,Sin informacion,Rural,3.701944,-74.662222,Cuchilla Altamizal,"{'type': 'Point', 'coordinates': [-74.662222, 3.701944]}"
Accidente por MAP,BOLIVAR,13,ARENAL,13042,2001,7,Accidente,Sin informacion,Rural,8.45731,-73.941577,Sitio La Ye De San Rafael,"{'type': 'Point', 'coordinates': [-73.941577, 8.45731]}"
Accidente por MAP,NARIÑO,52,POLICARPA,52540,2006,3,Accidente,Sin informacion,Rural,1.628192,-77.459098,Sin información,"{'type': 'Point', 'coordinates': [-77.459098, 1.628192]}"
Accidente por MAP,ARAUCA,81,TAME,81794,2006,4,Accidente,Sin informacion,Rural,6.461209,-71.730855,Sector Lejanías,"{'type': 'Point', 'coordinates': [-71.730855, 6.461209]}"
Accidente por MAP,ANTIOQUIA,5,SANTUARIO,5697,2001,12,Accidente,Sin informacion,Rural,6.136617,-75.264829,Sin información,"{'type': 'Point', 'coordinates': [-75.264829, 6.136617]}"
Accidente por MAP,CAUCA,19,EL TAMBO,19256,2005,3,Accidente,Sin informacion,Rural,2.445556,-76.8175,Sitio El Obelisco,"{'type': 'Point', 'coordinates': [-76.8175, 2.445556]}"
Accidente por MAP,TOLIMA,73,PLANADAS,73555,2005,12,Accidente,Sin informacion,Rural,3.197458,-75.643224,Sin información,"{'type': 'Point', 'coordinates': [-75.643224, 3.197458]}"
Accidente por MAP,TOLIMA,73,PLANADAS,73555,2005,8,Accidente,Sin informacion,Rural,3.128056,-75.700556,Vereda Barranquillita,"{'type': 'Point', 'coordinates': [-75.700556, 3.128056]}"
Accidente por MAP,CAUCA,19,CAJIBÍO,19130,2019,1,Accidente,Sin informacion,Rural,2.62513761897,-76.5610880856,Sin información,"{'type': 'Point', 'coordinates': [-76.5610880856, 2.62513761897]}"
Accidente por MAP,CESAR,20,AGUSTÍN CODAZZI,20013,2002,10,Accidente,Sin informacion,Rural,9.876944,-73.258889,Sin información,"{'type': 'Point', 'coordinates': [-73.258889, 9.876944]}"
Accidente por MUSE,BOYACA,15,EL COCUY,15244,2001,11,Accidente,Sin informacion,Rural,6.4078,-72.444665,El Cañaveral,"{'type': 'Point', 'coordinates': [-72.444665, 6.4078]}"
Accidente por MAP,BOLIVAR,13,CARTAGENA DE INDIAS,13001,2002,5,Accidente,Sin informacion,Rural,10.397047,-75.511207,Sin información,"{'type': 'Point', 'coordinates': [-75.511207, 10.397047]}"
Accidente por MAP,BOLIVAR,13,ARENAL,13042,2023,4,Accidente,Sin informacion,Rural,8.33055555555556,-74.1394444444445,Lomas de Honda,"{'type': 'Point', 'coordinates': [-74.1394444444445, 8.33055555555556]}"
Desminado militar en operaciones,ARAUCA,81,TAME,81794,2011,1,Incidente,Sin informacion,Rural,6.238889,-71.975278,Curipao,"{'type': 'Point', 'coordinates': [-71.975278, 6.238889]}"
Accidente por MAP,ANTIOQUIA,5,COCORNÁ,5197,2003,6,Accidente,Sin informacion,Rural,6.058001,-75.185085,Vereda Las Faldas,"{'type': 'Point', 'coordinates': [-75.185085, 6.058001]}"
Accidente por MAP,CORDOBA,23,PUERTO LIBERTADOR,23580,2008,2,Accidente,Sin informacion,Rural,7.883545,-75.670508,Sitio Tres Palitos,"{'type': 'Point', 'coordinates': [-75.670508, 7.883545]}"
Accidente por MAP,META,50,SAN JUAN DE ARAMA,50683,2004,2,Accidente,Sin informacion,Rural,3.380464,-73.878772,Sitio Angosturas,"{'type': 'Point', 'coordinates': [-73.878772, 3.380464]}"
Accidente por MAP,SANTANDER,68,SABANA DE TORRES,68655,2007,2,Accidente,Sin informacion,Rural,7.380556,-73.423333,Los Canelos,"{'type': 'Point', 'coordinates': [-73.423333, 7.380556]}"
Accidente por MAP,VALLE DEL CAUCA,76,FLORIDA,76275,2011,10,Accidente,Sin informacion,Rural,3.2875,-76.16111111111111,Sin información,"{'type': 'Point', 'coordinates': [-76.16111111111111, 3.2875]}"
Accidente por MAP,BOLIVAR,13,SAN PABLO,13670,1992,6,Accidente,Sin informacion,Rural,7.483919,-73.933361,Sin información,"{'type': 'Point', 'coordinates': [-73.933361, 7.483919]}"
Accidente por MAP,TOLIMA,73,CHAPARRAL,73168,2004,6,Accidente,Sin informacion,Rural,3.723381,-75.485633,Sin información,"{'type': 'Point', 'coordinates': [-75.485633, 3.723381]}"
Accidente por MAP,SANTANDER,68,SURATÁ,68780,2001,9,Accidente,Sin informacion,Rural,7.371953,-72.982441,Sin información,"{'type': 'Point', 'coordinates': [-72.982441, 7.371953]}"
Accidente por MAP,META,50,MESETAS,50330,2003,8,Accidente,Sin informacion,Rural,3.380371,-74.042419,Sin información,"{'type': 'Point', 'coordinates': [-74.042419, 3.380371]}"
Accidente por MAP,NORTE DE SANTANDER,54,TIBÚ,54810,2007,11,Accidente,Sin informacion,Rural,8.639326,-72.735541,Sin información,"{'type': 'Point', 'coordinates': [-72.735541, 8.639326]}"
Accidente por MAP,CALDAS,17,LA DORADA,17380,2003,5,Accidente,Sin informacion,Rural,5.460133,-74.667938,Sin información,"{'type': 'Point', 'coordinates': [-74.667938, 5.460133]}"
Accidente por MAP,CALDAS,17,SUPÍA,17777,2004,7,Accidente,Sin informacion,Rural,5.451732,-75.647668,"Vereda Brasil, Sector El Ramal","{'type': 'Point', 'coordinates': [-75.647668, 5.451732]}"
Accidente por MAP,CASANARE,85,CHÁMEZA,85015,2003,4,Accidente,Sin informacion,Rural,5.214621,-72.869693,Vereda Mundo Viejo,"{'type': 'Point', 'coordinates': [-72.869693, 5.214621]}"
Accidente por MAP,META,50,EL CASTILLO,50251,2005,8,Accidente,Sin informacion,Rural,3.610833,-73.950556,Sector Yamanes Miravalle,"{'type': 'Point', 'coordinates': [-73.950556, 3.610833]}"
Desminado militar en operaciones,ANTIOQUIA,5,VALDIVIA,5854,2010,1,Incidente,Sin informacion,Rural,7.338333,-75.357778,Las Paulinas,"{'type': 'Point', 'coordinates': [-75.357778, 7.338333]}"
Accidente por MAP,CHOCO,27,UNGUÍA,27800,2003,6,Accidente,Sin informacion,Rural,8.042731,-77.092107,"Vereda Santa María, En El Sitio Cerro Mosquito","{'type': 'Point', 'coordinates': [-77.092107, 8.042731]}"
Accidente por MAP,CHOCO,27,QUIBDÓ,27001,2001,6,Accidente,Sin informacion,Rural,5.694248,-76.650754,Vereda Las Mercedes,"{'type': 'Point', 'coordinates': [-76.650754, 5.694248]}"
Accidente por MAP,CAQUETA,18,FLORENCIA,18001,2002,11,Accidente,Sin informacion,Rural,1.621012,-75.619118,Sin información,"{'type': 'Point', 'coordinates': [-75.619118, 1.621012]}"
Accidente por MAP,SANTANDER,68,LA BELLEZA,68377,2002,11,Accidente,Sin informacion,Rural,5.856572,-73.965492,Vereda La Granadina,"{'type': 'Point', 'coordinates': [-73.965492, 5.856572]}"
Accidente por MAP,META,50,LA MACARENA,50350,2007,6,Accidente,Sin informacion,Rural,2.182506,-73.784832,Caño Guayabero,"{'type': 'Point', 'coordinates': [-73.784832, 2.182506]}"
Accidente por MAP,META,50,VISTAHERMOSA,50711,2005,6,Accidente,Sin informacion,Rural,3.194658,-73.875044,Vereda Costa Rica,"{'type': 'Point', 'coordinates': [-73.875044, 3.194658]}"
Accidente por MAP,CAUCA,19,LA SIERRA,19392,2002,12,Accidente,Sin informacion,Urbana,2.170833,-76.708333,Vereda El Salado,"{'type': 'Point', 'coordinates': [-76.708333, 2.170833]}"
Accidente por MAP,ANTIOQUIA,5,COCORNÁ,5197,2002,8,Accidente,Sin informacion,Rural,6.058001,-75.185085,Vereda San Lorenzo,"{'type': 'Point', 'coordinates': [-75.185085, 6.058001]}"
Accidente por MAP,ANTIOQUIA,5,ZARAGOZA,5895,1999,9,Accidente,Sin informacion,Rural,7.490632,-74.867778,Sin información,"{'type': 'Point', 'coordinates': [-74.867778, 7.490632]}"
Accidente por MAP,ARAUCA,81,TAME,81794,2005,10,Accidente,Sin informacion,Rural,6.461209,-71.730855,Vereda El Plato,"{'type': 'Point', 'coordinates': [-71.730855, 6.461209]}"
Accidente por MAP,ANTIOQUIA,5,TARAZÁ,5790,2005,11,Accidente,Sin informacion,Rural,7.582546,-75.400212,Vereda El Chuscal,"{'type': 'Point', 'coordinates': [-75.400212, 7.582546]}"
Accidente por MAP,ARAUCA,81,FORTUL,81300,2004,8,Accidente,Sin informacion,Rural,6.792924,-71.770658,Vereda El Mordisco,"{'type': 'Point', 'coordinates': [-71.770658, 6.792924]}"
Accidente por MAP,ANTIOQUIA,5,ARGELIA,5055,2003,9,Accidente,Sin informacion,Rural,5.731577,-75.1416,Vereda Campamento,"{'type': 'Point', 'coordinates': [-75.1416, 5.731577]}"
Accidente por MAP,SANTANDER,68,SABANA DE TORRES,68655,2001,1,Accidente,Sin informacion,Rural,7.397197,-73.496496,Sin información,"{'type': 'Point', 'coordinates': [-73.496496, 7.397197]}"
Accidente por MAP,ANTIOQUIA,5,ARGELIA,5055,2005,5,Accidente,Sin informacion,Rural,5.731577,-75.1416,Vereda El Tesoro,"{'type': 'Point', 'coordinates': [-75.1416, 5.731577]}"
Accidente por MAP,HUILA,41,ISNOS,41359,2003,9,Accidente,Sin informacion,Rural,1.929816,-76.216388,Sin información,"{'type': 'Point', 'coordinates': [-76.216388, 1.929816]}"
Accidente por MAP,ANTIOQUIA,5,DABEIBA,5234,2008,3,Accidente,Sin informacion,Rural,7.052778,-76.204167,Vereda El Chino,"{'type': 'Point', 'coordinates': [-76.204167, 7.052778]}"
Accidente por MAP,META,50,EL DORADO,50270,2004,8,Accidente,Sin informacion,Rural,3.719002,-73.848831,Vereda Palomarco,"{'type': 'Point', 'coordinates': [-73.848831, 3.719002]}"
Accidente por MAP,META,50,URIBE,50370,2004,5,Accidente,Sin informacion,Rural,3.240915,-74.354381,Base Militar Girasoles,"{'type': 'Point', 'coordinates': [-74.354381, 3.240915]}"
Accidente por MAP,VALLE DEL CAUCA,76,FLORIDA,76275,2008,1,Accidente,Sin informacion,Rural,3.269167,-76.1375,Los Cajones,"{'type': 'Point', 'coordinates': [-76.1375, 3.269167]}"
Accidente por MAP,BOLIVAR,13,SAN MARTÍN DE LOBA,13667,2000,8,Accidente,Sin informacion,Rural,8.946799,-74.040398,Carretera Chimi,"{'type': 'Point', 'coordinates': [-74.040398, 8.946799]}"
Accidente por MAP,CUNDINAMARCA,25,LA PALMA,25394,2003,3,Accidente,Sin informacion,Rural,5.359147,-74.390704,Sin información,"{'type': 'Point', 'coordinates': [-74.390704, 5.359147]}"
Accidente por MAP,ANTIOQUIA,5,DABEIBA,5234,2003,9,Accidente,Sin informacion,Rural,7.002761,-76.263894,Vereda Muam,"{'type': 'Point', 'coordinates': [-76.263894, 7.002761]}"
Accidente por MAP,VICHADA,99,PUERTO CARREÑO,99001,2006,2,Accidente,Sin informacion,Rural,6.180721,-67.50075,Cumaribo Y Puerto Carreño,"{'type': 'Point', 'coordinates': [-67.50075, 6.180721]}"
Accidente por MAP,ANTIOQUIA,5,ABEJORRAL,5002,2005,11,Accidente,Sin informacion,Rural,5.790278,-75.4275,Vereda Pantano Negro,"{'type': 'Point', 'coordinates': [-75.4275, 5.790278]}"
Accidente por MAP,ARAUCA,81,TAME,81794,2006,9,Accidente,Sin informacion,Rural,6.533333,-71.555556,Entre Camame Y Caño Limon,"{'type': 'Point', 'coordinates': [-71.555556, 6.533333]}"
Accidente por MAP,ANTIOQUIA,5,ARGELIA,5055,2003,8,Accidente,Sin informacion,Rural,5.731577,-75.1416,Vereda La Margarita,"{'type': 'Point', 'coordinates': [-75.1416, 5.731577]}"
Accidente por MAP,META,50,LA MACARENA,50350,2004,9,Accidente,Sin informacion,Rural,1.779167,-74.163611,Vereda Chontillal,"{'type': 'Point', 'coordinates': [-74.163611, 1.779167]}"
Accidente por MAP,NARIÑO,52,SAMANIEGO,52678,2008,2,Accidente,Sin informacion,Rural,1.337083,-77.59313,Sin información,"{'type': 'Point', 'coordinates': [-77.59313, 1.337083]}"
Accidente por MAP,CALDAS,17,MANZANARES,17433,2006,9,Accidente,Sin informacion,Rural,5.23638888888889,-75.2030555555556,Vereda Alto Del Toro,"{'type': 'Point', 'coordinates': [-75.2030555555556, 5.23638888888889]}"
Accidente por MAP,BOLIVAR,13,SAN JACINTO,13654,2007,3,Accidente,Sin informacion,Rural,9.806944,-75.021944,La Vereda Catalanes,"{'type': 'Point', 'coordinates': [-75.021944, 9.806944]}"
Accidente por MAP,META,50,SAN JUAN DE ARAMA,50683,2006,4,Accidente,Sin informacion,Rural,3.2352,-73.87976,"Vereda Puerto Gaitán, Finca Los Mangos","{'type': 'Point', 'coordinates': [-73.87976, 3.2352]}"
Accidente por MAP,VAUPES,97,MITÚ,97001,2002,10,Accidente,Sin informacion,Rural,1.249969,-70.235462,Vereda Ceima Km 12 Vía Monfor,"{'type': 'Point', 'coordinates': [-70.235462, 1.249969]}"
Accidente por MAP,ARAUCA,81,SARAVENA,81736,2006,3,Accidente,Sin informacion,Rural,6.958339,-71.878277,"Vereda Buenos Aires, Finca Miraflores","{'type': 'Point', 'coordinates': [-71.878277, 6.958339]}"
Accidente por MAP,SANTANDER,68,SURATÁ,68780,2001,7,Accidente,Sin informacion,Rural,7.371953,-72.982441,Sitio Maveda,"{'type': 'Point', 'coordinates': [-72.982441, 7.371953]}"
Municiones sin explotar,NORTE DE SANTANDER,54,SARDINATA,54720,2007,11,Incidente,Sin informacion,Rural,8.42,-72.77,Uxo_Pp_10004878,"{'type': 'Point', 'coordinates': [-72.77, 8.42]}"
Accidente por MAP,ANTIOQUIA,5,SONSÓN,5756,2004,12,Accidente,Sin informacion,Rural,5.709167,-75.310278,Sector Perrillo,"{'type': 'Point', 'coordinates': [-75.310278, 5.709167]}"
Accidente por MAP,CAQUETA,18,SAN VICENTE DEL CAGUÁN,18753,2004,6,Accidente,Sin informacion,Rural,2.761389,-75.012222,Vereda El Libertador,"{'type': 'Point', 'coordinates': [-75.012222, 2.761389]}"
Accidente por MAP,NORTE DE SANTANDER,54,ÁBREGO,54003,2001,10,Accidente,Sin informacion,Rural,8.081507,-73.221319,Vereda Alto El Pozo,"{'type': 'Point', 'coordinates': [-73.221319, 8.081507]}"
Accidente por MAP,CAUCA,19,CALOTO,19142,2005,6,Accidente,Sin informacion,Rural,3.034582,-76.40794,Vereda Pajarito,"{'type': 'Point', 'coordinates': [-76.40794, 3.034582]}"
Accidente por MAP,CASANARE,85,TAURAMENA,85410,2002,11,Accidente,Sin informacion,Rural,5.017559,-72.747059,Vereda Lagunita,"{'type': 'Point', 'coordinates': [-72.747059, 5.017559]}"
Accidente por MAP,ANTIOQUIA,5,COCORNÁ,5197,2002,12,Accidente,Sin informacion,Rural,6.058001,-75.185085,Sin información,"{'type': 'Point', 'coordinates': [-75.185085, 6.058001]}"
Accidente por MAP,ANTIOQUIA,5,AMALFI,5031,2006,4,Accidente,Sin informacion,Rural,7.244167,-74.924167,Cerro 655 Margen Derecha Porce,"{'type': 'Point', 'coordinates': [-74.924167, 7.244167]}"
Accidente por MAP,CESAR,20,EL COPEY,20238,2003,4,Accidente,Sin informacion,Rural,10.151103,-73.960141,Puente Quemado,"{'type': 'Point', 'coordinates': [-73.960141, 10.151103]}"
Accidente por MAP,BOLIVAR,13,SAN PABLO,13670,2007,12,Accidente,Sin informacion,Rural,7.472778,-74.2375,Serrania Sto Domingo,"{'type': 'Point', 'coordinates': [-74.2375, 7.472778]}"
Accidente por MAP,ANTIOQUIA,5,COCORNÁ,5197,2004,7,Accidente,Sin informacion,Rural,6.058001,-75.185085,Boquerón,"{'type': 'Point', 'coordinates': [-75.185085, 6.058001]}"
Accidente por MAP,ANTIOQUIA,5,YARUMAL,5887,2006,11,Accidente,Sin informacion,Rural,6.963517,-75.41644,Vereda La Cordillera,"{'type': 'Point', 'coordinates': [-75.41644, 6.963517]}"
Accidente por MAP,CORDOBA,23,PUERTO LIBERTADOR,23580,2004,4,Accidente,Sin informacion,Rural,7.883545,-75.670508,Sin información,"{'type': 'Point', 'coordinates': [-75.670508, 7.883545]}"
Accidente por MAP,CORDOBA,23,TIERRALTA,23807,2005,3,Accidente,Sin informacion,Rural,7.776944,-76.026667,Sitio Río Manso,"{'type': 'Point', 'coordinates': [-76.026667, 7.776944]}"
Accidente por MAP,PUTUMAYO,86,ORITO,86320,2003,6,Accidente,Sin informacion,Rural,0.664866,-76.869171,Sin información,"{'type': 'Point', 'coordinates': [-76.869171, 0.664866]}"
Accidente por MAP,ANTIOQUIA,5,SAN FRANCISCO,5652,2004,6,Accidente,Sin informacion,Rural,5.965414,-75.10198,Vereda La Floresta,"{'type': 'Point', 'coordinates': [-75.10198, 5.965414]}"
Desminado militar en operaciones,HUILA,41,TELLO,41799,2010,1,Incidente,Sin informacion,Rural,3.067077,-75.138764,El Versalles,"{'type': 'Point', 'coordinates': [-75.138764, 3.067077]}"
Accidente por MAP,SANTANDER,68,RIONEGRO,68615,1993,9,Accidente,Sin informacion,Rural,7.268891,-73.152703,Corg. San Rafael,"{'type': 'Point', 'coordinates': [-73.152703, 7.268891]}"
Accidente por MAP,BOYACA,15,PAJARITO,15518,1995,7,Accidente,Sin informacion,Rural,5.41277777777778,-72.73,Vereda Corinto,"{'type': 'Point', 'coordinates': [-72.73, 5.41277777777778]}"
Accidente por MAP,CAUCA,19,EL TAMBO,19256,2005,9,Accidente,Sin informacion,Rural,2.460833,-76.883889,Sin información,"{'type': 'Point', 'coordinates': [-76.883889, 2.460833]}"
Accidente por MAP,VALLE DEL CAUCA,76,PRADERA,76563,2007,12,Accidente,Sin informacion,Rural,3.458333,-76.137222,Corregimiento El Retiro,"{'type': 'Point', 'coordinates': [-76.137222, 3.458333]}"
Accidente por MAP,ANTIOQUIA,5,ITUANGO,5361,2006,1,Accidente,Sin informacion,Rural,7.237,-75.825,Vereda Bajo Inglés,"{'type': 'Point', 'coordinates': [-75.825, 7.237]}"
Accidente por MAP,BOLIVAR,13,SAN PABLO,13670,2005,4,Accidente,Sin informacion,Rural,7.483919,-73.933361,Vereda El Socorro,"{'type': 'Point', 'coordinates': [-73.933361, 7.483919]}"
Accidente por MAP,META,50,VISTAHERMOSA,50711,2002,4,Accidente,Sin informacion,Rural,3.125088,-73.752373,Sin información,"{'type': 'Point', 'coordinates': [-73.752373, 3.125088]}"
Desminado militar en operaciones,NORTE DE SANTANDER,54,TEORAMA,54800,2015,3,Incidente,Sin informacion,Rural,8.5894444444,-73.26527778,Vereda Llana Baja,"{'type': 'Point', 'coordinates': [-73.26527778, 8.5894444444]}"
Accidente por MAP,ANTIOQUIA,5,EL BAGRE,5250,2001,7,Accidente,Sin informacion,Rural,7.583611,-74.6025,Sin información,"{'type': 'Point', 'coordinates': [-74.6025, 7.583611]}"
Accidente por MAP,CAQUETA,18,SAN VICENTE DEL CAGUÁN,18753,2003,3,Accidente,Sin informacion,Rural,2.120008,-74.768227,Vereda La Bodega,"{'type': 'Point', 'coordinates': [-74.768227, 2.120008]}"
Accidente por MAP,ANTIOQUIA,5,ANORÍ,5040,2004,10,Accidente,Sin informacion,Rural,7.239167,-75.239167,Vereda San Isidro,"{'type': 'Point', 'coordinates': [-75.239167, 7.239167]}"
Accidente por MAP,ANTIOQUIA,5,SAN RAFAEL,5667,2006,3,Accidente,Sin informacion,Rural,6.238056,-75.066944,Vereda Quebradona,"{'type': 'Point', 'coordinates': [-75.066944, 6.238056]}"
Accidente por MAP,NARIÑO,52,SAN PABLO,52693,2006,3,Accidente,Sin informacion,Rural,1.669654,-77.011958,Sin información,"{'type': 'Point', 'coordinates': [-77.011958, 1.669654]}"
Accidente por MAP,CAQUETA,18,MONTAÑITA,18410,2004,1,Accidente,Sin informacion,Rural,1.193333,-75.094722,Sin información,"{'type': 'Point', 'coordinates': [-75.094722, 1.193333]}"
Accidente por MAP,BOLIVAR,13,MORALES,13473,1995,4,Accidente,Sin informacion,Rural,8.270279,-73.865805,Sitio La Sabana,"{'type': 'Point', 'coordinates': [-73.865805, 8.270279]}"
Desminado militar en operaciones,BOLIVAR,13,EL CARMEN DE BOLÍVAR,13244,2010,2,Incidente,Sin informacion,Rural,9.744722,-75.268056,Sector La Casona,"{'type': 'Point', 'coordinates': [-75.268056, 9.744722]}"
Accidente por MAP,ANTIOQUIA,5,VALDIVIA,5854,2006,5,Accidente,Sin informacion,Rural,7.308,-75.225,Vereda Las Frías,"{'type': 'Point', 'coordinates': [-75.225, 7.308]}"
Accidente por MAP,ANTIOQUIA,5,TARAZÁ,5790,2004,12,Accidente,Sin informacion,Rural,7.582546,-75.400212,Sin información,"{'type': 'Point', 'coordinates': [-75.400212, 7.582546]}"
Accidente por MAP,CAQUETA,18,MONTAÑITA,18410,2008,2,Accidente,Sin informacion,Rural,1.49494421255,-75.4630895064,Buenos Aires,"{'type': 'Point', 'coordinates': [-75.4630895064, 1.49494421255]}"
Accidente por MAP,PUTUMAYO,86,PUERTO CAICEDO,86569,2008,11,Accidente,Sin informacion,Rural,0.68938,-76.603594,Sin información,"{'type': 'Point', 'coordinates': [-76.603594, 0.68938]}"
Accidente por MAP,NARIÑO,52,LA LLANADA,52385,2008,1,Accidente,Sin informacion,Rural,1.472995,-77.580358,Sin información,"{'type': 'Point', 'coordinates': [-77.580358, 1.472995]}"
Accidente por MAP,ANTIOQUIA,5,VALDIVIA,5854,2008,3,Accidente,Sin informacion,Rural,7.165222,-75.438081,Vereda Chorrillos,"{'type': 'Point', 'coordinates': [-75.438081, 7.165222]}"
Accidente por MAP,HUILA,41,ALGECIRAS,41020,2007,7,Accidente,Sin informacion,Rural,2.522444,-75.313361,Sin información,"{'type': 'Point', 'coordinates': [-75.313361, 2.522444]}"
Accidente por MAP,CAUCA,19,EL TAMBO,19256,2009,3,Accidente,Sin informacion,Rural,2.451476,-76.810904,El Km-75,"{'type': 'Point', 'coordinates': [-76.810904, 2.451476]}"
Accidente por MAP,BOLIVAR,13,SAN PABLO,13670,2008,1,Accidente,Sin informacion,Rural,7.483919,-73.933361,El Triangulo,"{'type': 'Point', 'coordinates': [-73.933361, 7.483919]}"
Accidente por MAP,GUAVIARE,95,SAN JOSÉ DEL GUAVIARE,95001,2011,3,Accidente,Campo,Rural,2.564079,-72.640033,Sin información,"{'type': 'Point', 'coordinates': [-72.640033, 2.564079]}"
Accidente por MAP,ANTIOQUIA,5,CAÑASGORDAS,5138,2009,9,Accidente,Sin informacion,Rural,6.75462213806084,-76.0394635245984,Sin información,"{'type': 'Point', 'coordinates': [-76.0394635245984, 6.75462213806084]}"
Sospecha de campo minado,ANTIOQUIA,5,SONSÓN,5756,2010,6,Incidente,Sin informacion,Rural,5.836216,-75.196339,Cuchilla-Morrogacho,"{'type': 'Point', 'coordinates': [-75.196339, 5.836216]}"
Accidente por MAP,CAUCA,19,ARGELIA,19050,2011,8,Accidente,Sin informacion,Rural,2.4702777777777776,-77.23583333333333,Sin información,"{'type': 'Point', 'coordinates': [-77.23583333333333, 2.4702777777777776]}"
Accidente por MAP,ANTIOQUIA,5,SAN CARLOS,5649,2002,9,Accidente,Sin informacion,Rural,6.187566,-74.993636,Vereda Buenos Aires,"{'type': 'Point', 'coordinates': [-74.993636, 6.187566]}"
Accidente por MAP,ANTIOQUIA,5,SAN CARLOS,5649,2002,9,Accidente,Sin informacion,Rural,6.187566,-74.993636,Vereda Buenos Aires,"{'type': 'Point', 'coordinates': [-74.993636, 6.187566]}"
Sospecha de campo minado,ANTIOQUIA,5,GRANADA,5313,2010,8,Incidente,Sin informacion,Rural,6.149444,-75.112222,Vereda La Quiebra,"{'type': 'Point', 'coordinates': [-75.112222, 6.149444]}"
Sospecha de campo minado,ANTIOQUIA,5,GRANADA,5313,2010,9,Incidente,En sobre cerca rivera de un rio,Rural,6.0475,-75.1275,Vereda La Arenosa,"{'type': 'Point', 'coordinates': [-75.1275, 6.0475]}"
Sospecha de campo minado,ANTIOQUIA,5,GRANADA,5313,2010,12,Incidente,Caminos,Rural,6.114444,-75.088611,Vereda La Linda,"{'type': 'Point', 'coordinates': [-75.088611, 6.114444]}"
Accidente por MAP,ANTIOQUIA,5,SAN CARLOS,5649,2000,6,Accidente,Sin informacion,Rural,6.187566,-74.993636,Barrio San Vicente,"{'type': 'Point', 'coordinates': [-74.993636, 6.187566]}"
Desminado militar en operaciones,ARAUCA,81,ARAUQUITA,81065,2011,10,Incidente,Sin informacion,Rural,7.011111,-71.444722,Vereda Mata De Cacao,"{'type': 'Point', 'coordinates': [-71.444722, 7.011111]}"
Desminado militar en operaciones,CAUCA,19,CORINTO,19212,2011,10,Incidente,Sin informacion,Rural,3.153056,-76.243889,Hacienda Villa Juliana,"{'type': 'Point', 'coordinates': [-76.243889, 3.153056]}"
Desminado militar en operaciones,CHOCO,27,SAN JOSÉ DEL PALMAR,27660,2011,10,Incidente,Sin informacion,Rural,4.957778,-76.291944,Alto La Cruz,"{'type': 'Point', 'coordinates': [-76.291944, 4.957778]}"
Desminado militar en operaciones,ANTIOQUIA,5,SONSÓN,5756,2011,4,Incidente,Sin informacion,Rural,5.754444,-74.869722,Mulato Arriba,"{'type': 'Point', 'coordinates': [-74.869722, 5.754444]}"
Desminado militar en operaciones,HUILA,41,COLOMBIA,41206,2011,10,Incidente,Sin informacion,Rural,3.669722,-74.583889,Los Quecos,"{'type': 'Point', 'coordinates': [-74.583889, 3.669722]}"
Desminado militar en operaciones,PUTUMAYO,86,PUERTO CAICEDO,86569,2011,10,Incidente,Sin informacion,Rural,0.705833,-76.416111,Vereda Nueva Arabia,"{'type': 'Point', 'coordinates': [-76.416111, 0.705833]}"
Desminado militar en operaciones,META,50,URIBE,50370,2011,9,Incidente,Sin informacion,Rural,2.8375,-74.215,Vereda La Primavera,"{'type': 'Point', 'coordinates': [-74.215, 2.8375]}"
Desminado militar en operaciones,VALLE DEL CAUCA,76,PRADERA,76563,2011,9,Incidente,Sin informacion,Rural,3.412778,-76.1775,Vda El Libano,"{'type': 'Point', 'coordinates': [-76.1775, 3.412778]}"
Desminado militar en operaciones,ARAUCA,81,TAME,81794,2011,9,Incidente,Sin informacion,Rural,6.393056,-71.888056,San Antonio Escuela Puente Tame,"{'type': 'Point', 'coordinates': [-71.888056, 6.393056]}"
Desminado militar en operaciones,TOLIMA,73,VILLARRICA,73873,2011,9,Incidente,Sin informacion,Rural,3.874722,-74.549444,Parte Alta De La Colonia,"{'type': 'Point', 'coordinates': [-74.549444, 3.874722]}"
Desminado militar en operaciones,TOLIMA,73,CHAPARRAL,73168,2011,9,Incidente,Sin informacion,Rural,3.879722,-75.697222,Area General Corregimiento San Jose De Las Hermosas,"{'type': 'Point', 'coordinates': [-75.697222, 3.879722]}"
Desminado militar en operaciones,ANTIOQUIA,5,DABEIBA,5234,2011,9,Incidente,Sin informacion,Rural,7.024722,-76.195,Cruces,"{'type': 'Point', 'coordinates': [-76.195, 7.024722]}"
Desminado militar en operaciones,CAQUETA,18,MONTAÑITA,18410,2011,9,Incidente,Sin informacion,Rural,1.49494421255,-75.4630895064,Vereda Buenos Aires,"{'type': 'Point', 'coordinates': [-75.4630895064, 1.49494421255]}"
Desminado militar en operaciones,PUTUMAYO,86,PUERTO CAICEDO,86569,2011,8,Incidente,Sin informacion,Rural,0.757222,-76.585,Villa Flor,"{'type': 'Point', 'coordinates': [-76.585, 0.757222]}"
Desminado militar en operaciones,VALLE DEL CAUCA,76,BUGA,76111,2010,1,Incidente,Sin informacion,Rural,3.896944,-76.102778,El Crucero,"{'type': 'Point', 'coordinates': [-76.102778, 3.896944]}"
Desminado militar en operaciones,ANTIOQUIA,5,SAN RAFAEL,5667,2011,8,Incidente,Sin informacion,Rural,6.387222,-74.932222,Vereda El Ingenio,"{'type': 'Point', 'coordinates': [-74.932222, 6.387222]}"
Desminado militar en operaciones,NORTE DE SANTANDER,54,EL TARRA,54250,2011,8,Incidente,Sin informacion,Rural,8.796111,-73.0525,Cerro La Virgen,"{'type': 'Point', 'coordinates': [-73.0525, 8.796111]}"
Desminado militar en operaciones,META,50,URIBE,50370,2011,8,Incidente,Sin informacion,Rural,3.348611,-74.486111,Vereda Planes,"{'type': 'Point', 'coordinates': [-74.486111, 3.348611]}"
Desminado militar en operaciones,TOLIMA,73,PLANADAS,73555,2011,8,Incidente,Sin informacion,Rural,2.96,-75.876944,Vereda Los Guayabos,"{'type': 'Point', 'coordinates': [-75.876944, 2.96]}"
Desminado militar en operaciones,CAQUETA,18,SAN VICENTE DEL CAGUÁN,18753,2009,2,Incidente,Sin informacion,Rural,2.120008,-74.768227,Vereda Los Picachos,"{'type': 'Point', 'coordinates': [-74.768227, 2.120008]}"
Desminado militar en operaciones,NORTE DE SANTANDER,54,SARDINATA,54720,2011,7,Incidente,Sin informacion,Rural,8.238333,-72.664722,Vereda El Guamo,"{'type': 'Point', 'coordinates': [-72.664722, 8.238333]}"
Desminado militar en operaciones,ANTIOQUIA,5,ANORÍ,5040,2011,7,Incidente,Sin informacion,Rural,6.943333,-75.188611,Medias Faldas,"{'type': 'Point', 'coordinates': [-75.188611, 6.943333]}"
Desminado militar en operaciones,PUTUMAYO,86,SAN MIGUEL,86757,2011,7,Incidente,Sin informacion,Rural,0.334167,-77.000278,Vereda Nueva Esperanza,"{'type': 'Point', 'coordinates': [-77.000278, 0.334167]}"
Desminado militar en operaciones,TOLIMA,73,ORTEGA,73504,2011,7,Incidente,Sin informacion,Rural,3.844167,-75.3,Vereda Tumbili,"{'type': 'Point', 'coordinates': [-75.3, 3.844167]}"
Desminado militar en operaciones,CAQUETA,18,MILÁN,18460,2011,10,Incidente,Sin informacion,Rural,1.071389,-75.274722,Vereda Aguas Blancas,"{'type': 'Point', 'coordinates': [-75.274722, 1.071389]}"
Desminado militar en operaciones,ANTIOQUIA,5,ITUANGO,5361,2011,9,Incidente,Sin informacion,Rural,7.309167,-76.172222,Mata Guadua,"{'type': 'Point', 'coordinates': [-76.172222, 7.309167]}"
Desminado militar en operaciones,TOLIMA,73,PLANADAS,73555,2011,7,Incidente,Sin informacion,Rural,3.058333,-75.639722,Vereda Rio Claro,"{'type': 'Point', 'coordinates': [-75.639722, 3.058333]}"
Desminado militar en operaciones,CORDOBA,23,PUERTO LIBERTADOR,23580,2010,11,Incidente,Sin informacion,Rural,7.648889,-75.841389,El Sector Aguas Lindas,"{'type': 'Point', 'coordinates': [-75.841389, 7.648889]}"
Desminado militar en operaciones,CORDOBA,23,PUERTO LIBERTADOR,23580,2010,12,Incidente,Sin informacion,Rural,7.354444,-75.953889,Beunavista,"{'type': 'Point', 'coordinates': [-75.953889, 7.354444]}"
Desminado militar en operaciones,PUTUMAYO,86,PUERTO ASÍS,86568,2010,9,Incidente,Sin informacion,Rural,0.286667,-76.536389,Etteye,"{'type': 'Point', 'coordinates': [-76.536389, 0.286667]}"
Desminado militar en operaciones,NARIÑO,52,RICAURTE,52612,2010,9,Incidente,Sin informacion,Rural,1.199444,-77.958333,En Chucunes,"{'type': 'Point', 'coordinates': [-77.958333, 1.199444]}"
Desminado militar en operaciones,GUAVIARE,95,EL RETORNO,95025,2010,12,Incidente,Sin informacion,Rural,2.298889,-72.413056,En Gibraltar,"{'type': 'Point', 'coordinates': [-72.413056, 2.298889]}"
Desminado militar en operaciones,META,50,PUERTO RICO,50590,2010,8,Incidente,Sin informacion,Rural,2.938889,-73.212222,El Sitio Puerto Fluvial,"{'type': 'Point', 'coordinates': [-73.212222, 2.938889]}"
Desminado militar en operaciones,ARAUCA,81,TAME,81794,2010,2,Incidente,Sin informacion,Rural,6.283056,-72.056944,El Tame,"{'type': 'Point', 'coordinates': [-72.056944, 6.283056]}"
Desminado militar en operaciones,HUILA,41,BARAYA,41078,2010,2,Incidente,Sin informacion,Rural,3.025278,-74.867778,Río Negro,"{'type': 'Point', 'coordinates': [-74.867778, 3.025278]}"
Incautaciones,TOLIMA,73,CHAPARRAL,73168,2008,7,Incidente,Sin informacion,Rural,3.723381,-75.485633,Incautacion,"{'type': 'Point', 'coordinates': [-75.485633, 3.723381]}"
Desminado militar en operaciones,GUAVIARE,95,SAN JOSÉ DEL GUAVIARE,95001,2010,6,Incidente,Sin informacion,Rural,2.306667,-73.318333,Caño Angoleta,"{'type': 'Point', 'coordinates': [-73.318333, 2.306667]}"
Desminado militar en operaciones,CAQUETA,18,MONTAÑITA,18410,2010,11,Incidente,Sin informacion,Rural,1.121944,-75.145,El Vergel,"{'type': 'Point', 'coordinates': [-75.145, 1.121944]}"
Desminado militar en operaciones,CAQUETA,18,MONTAÑITA,18410,2010,12,Incidente,Sin informacion,Rural,1.165833,-75.130556,La Vereda La Esmeralda,"{'type': 'Point', 'coordinates': [-75.130556, 1.165833]}"
Desminado militar en operaciones,CAQUETA,18,MONTAÑITA,18410,2010,10,Incidente,Sin informacion,Rural,1.145833,-75.111111,Corazones,"{'type': 'Point', 'coordinates': [-75.111111, 1.145833]}"
Desminado militar en operaciones,CAQUETA,18,MONTAÑITA,18410,2010,10,Incidente,Sin informacion,Rural,1.176667,-75.093889,La Libertad,"{'type': 'Point', 'coordinates': [-75.093889, 1.176667]}"
Desminado militar en operaciones,ANTIOQUIA,5,TARAZÁ,5790,2010,8,Incidente,Sin informacion,Rural,7.454167,-75.414444,El Carmen,"{'type': 'Point', 'coordinates': [-75.414444, 7.454167]}"
Desminado militar en operaciones,ANTIOQUIA,5,TARAZÁ,5790,2010,10,Incidente,Sin informacion,Rural,7.57,-75.560556,El Alto San Agustin,"{'type': 'Point', 'coordinates': [-75.560556, 7.57]}"
Desminado militar en operaciones,BOLIVAR,13,CANTAGALLO,13160,2010,11,Incidente,Sin informacion,Rural,7.259444,-74.126389,Sapo Escondido,"{'type': 'Point', 'coordinates': [-74.126389, 7.259444]}"
Desminado militar en operaciones,BOLIVAR,13,CANTAGALLO,13160,2010,10,Incidente,Sin informacion,Rural,7.247222,-74.096667,El Cerro Paraguas,"{'type': 'Point', 'coordinates': [-74.096667, 7.247222]}"
Arsenal almacenada,BOGOTA DC,11,Bogotá DC,11001,2003,10,Incidente,Sin informacion,Rural,4.680486,-74.146592,Usme,"{'type': 'Point', 'coordinates': [-74.146592, 4.680486]}"
Desminado militar en operaciones,TOLIMA,73,PLANADAS,73555,2010,7,Incidente,Sin informacion,Rural,3.191944,-75.762222,La Cuchilla La Pereza,"{'type': 'Point', 'coordinates': [-75.762222, 3.191944]}"
Desminado militar en operaciones,NORTE DE SANTANDER,54,EL TARRA,54250,2010,12,Incidente,Sin informacion,Rural,8.694444,-72.967222,La Paz,"{'type': 'Point', 'coordinates': [-72.967222, 8.694444]}"
Desminado militar en operaciones,NARIÑO,52,ROBERTO PAYÁN,52621,2010,10,Incidente,Sin informacion,Rural,1.8225,-78.270278,En Bocas De Telembi,"{'type': 'Point', 'coordinates': [-78.270278, 1.8225]}"
Desminado militar en operaciones,META,50,URIBE,50370,2008,6,Incidente,Sin informacion,Rural,3.349444,-74.491111,Las Dispersas,"{'type': 'Point', 'coordinates': [-74.491111, 3.349444]}"
Desminado militar en operaciones,CAQUETA,18,CARTAGENA DEL CHAIRÁ,18150,2010,10,Incidente,Sin informacion,Rural,0.584444,-74.213889,La Vereda Monserrate,"{'type': 'Point', 'coordinates': [-74.213889, 0.584444]}"
Desminado militar en operaciones,LA GUAJIRA,44,BARRANCAS,44078,2010,9,Incidente,Sin informacion,Rural,10.956944,-72.780278,Plazoleta,"{'type': 'Point', 'coordinates': [-72.780278, 10.956944]}"
Desminado militar en operaciones,CAUCA,19,MIRANDA,19455,2010,7,Incidente,Sin informacion,Rural,3.183333,-76.104167,La Vereda La Tigrera,"{'type': 'Point', 'coordinates': [-76.104167, 3.183333]}"
Desminado militar en operaciones,META,50,MESETAS,50330,2010,11,Incidente,Sin informacion,Rural,2.8875,-74.076389,Palmeras,"{'type': 'Point', 'coordinates': [-74.076389, 2.8875]}"
Desminado militar en operaciones,META,50,URIBE,50370,2008,6,Incidente,Sin informacion,Rural,3.238889,-74.398611,Vereda Versalles,"{'type': 'Point', 'coordinates': [-74.398611, 3.238889]}"
Desminado militar en operaciones,NORTE DE SANTANDER,54,TEORAMA,54800,2010,10,Incidente,Sin informacion,Rural,8.567778,-73.273333,Mesones,"{'type': 'Point', 'coordinates': [-73.273333, 8.567778]}"
Incautaciones,LA GUAJIRA,44,MAICAO,44430,2008,6,Incidente,Sin informacion,Rural,11.186944,-72.313611,Manantiales,"{'type': 'Point', 'coordinates': [-72.313611, 11.186944]}"
Incautaciones,HUILA,41,COLOMBIA,41206,2008,6,Incidente,Campamentos ilegales,Rural,3.545278,-74.665556,Vereda Profunda,"{'type': 'Point', 'coordinates': [-74.665556, 3.545278]}"
Incautaciones,CUNDINAMARCA,25,ANOLAIMA,25040,1995,10,Incidente,Sin informacion,Rural,4.757304,-74.461745,Sin información,"{'type': 'Point', 'coordinates': [-74.461745, 4.757304]}"
Desminado militar en operaciones,META,50,VISTAHERMOSA,50711,2010,9,Incidente,Sin informacion,Rural,2.803611,-73.972778,La Vereda La Escalera,"{'type': 'Point', 'coordinates': [-73.972778, 2.803611]}"
Desminado militar en operaciones,META,50,VISTAHERMOSA,50711,2010,10,Incidente,Sin informacion,Rural,2.813056,-73.995833,Sto Domingo,"{'type': 'Point', 'coordinates': [-73.995833, 2.813056]}"
Desminado militar en operaciones,META,50,VISTAHERMOSA,50711,2010,6,Incidente,Sin informacion,Rural,2.818056,-73.805,Sto Domingo,"{'type': 'Point', 'coordinates': [-73.805, 2.818056]}"
Desminado militar en operaciones,META,50,URIBE,50370,2010,6,Incidente,Sin informacion,Rural,3.2475,-74.310556,La Vereda El Vergel,"{'type': 'Point', 'coordinates': [-74.310556, 3.2475]}"
Desminado militar en operaciones,META,50,URIBE,50370,2010,10,Incidente,Sin informacion,Rural,2.931944,-74.301389,La Vereda Mansitas,"{'type': 'Point', 'coordinates': [-74.301389, 2.931944]}"
Desminado militar en operaciones,ARAUCA,81,TAME,81794,2010,11,Incidente,Sin informacion,Rural,6.607778,-71.688611,Babaica,"{'type': 'Point', 'coordinates': [-71.688611, 6.607778]}"
Sospecha de campo minado,META,50,VISTAHERMOSA,50711,2010,7,Incidente,Sin informacion,Rural,3.119983,-73.748065,Caño Danta,"{'type': 'Point', 'coordinates': [-73.748065, 3.119983]}"
Accidente por MAP,CAUCA,19,ARGELIA,19050,2011,12,Accidente,Sin informacion,Rural,2.3983333333,-77.2538888889,Sin información,"{'type': 'Point', 'coordinates': [-77.2538888889, 2.3983333333]}"
Desminado militar en operaciones,ANTIOQUIA,5,GRANADA,5313,2011,11,Incidente,Sin informacion,Rural,6.127778,-75.096111,Vereda La Quiebra,"{'type': 'Point', 'coordinates': [-75.096111, 6.127778]}"
Accidente por MUSE,CAQUETA,18,CURILLO,18205,2012,2,Accidente,Sin informacion,Rural,1.033544,-75.918968,Sin información,"{'type': 'Point', 'coordinates': [-75.918968, 1.033544]}"
Desminado militar en operaciones,META,50,MESETAS,50330,2009,5,Incidente,Sin informacion,Rural,2.933611,-74.058611,Santo Domingo,"{'type': 'Point', 'coordinates': [-74.058611, 2.933611]}"
Desminado militar en operaciones,PUTUMAYO,86,PUERTO GUZMÁN,86571,2011,11,Incidente,Sin informacion,Rural,0.980833,-76.032222,Vereda Campo Rojas,"{'type': 'Point', 'coordinates': [-76.032222, 0.980833]}"
Desminado militar en operaciones,META,50,PUERTO RICO,50590,2011,11,Incidente,Sin informacion,Rural,2.762778,-73.05,Vereda La Union,"{'type': 'Point', 'coordinates': [-73.05, 2.762778]}"
Desminado militar en operaciones,NORTE DE SANTANDER,54,TEORAMA,54800,2011,12,Incidente,Sin informacion,Rural,8.617222,-73.260833,Guarupales,"{'type': 'Point', 'coordinates': [-73.260833, 8.617222]}"
Desminado militar en operaciones,CAUCA,19,CALDONO,19137,2011,12,Incidente,Sin informacion,Rural,2.804722,-76.548056,Vda. El Crucero,"{'type': 'Point', 'coordinates': [-76.548056, 2.804722]}"
Desminado militar en operaciones,TOLIMA,73,RIOBLANCO,73616,2011,12,Incidente,Sin informacion,Rural,3.454722,-75.823889,Herrera,"{'type': 'Point', 'coordinates': [-75.823889, 3.454722]}"
Desminado militar en operaciones,VICHADA,99,LA PRIMAVERA,99524,2011,12,Incidente,Sin informacion,Rural,4.984167,-69.725,Comunidad Indigena La Llanura,"{'type': 'Point', 'coordinates': [-69.725, 4.984167]}"
Desminado militar en operaciones,ANTIOQUIA,5,YARUMAL,5887,2011,12,Incidente,Sin informacion,Rural,7.016944,-75.585,El Llano,"{'type': 'Point', 'coordinates': [-75.585, 7.016944]}"
Sospecha de campo minado,SANTANDER,68,EL CARMEN,68235,2011,5,Incidente,Cerros,Rural,6.763537,-73.518139,Sin información,"{'type': 'Point', 'coordinates': [-73.518139, 6.763537]}"
Sospecha de campo minado,CALDAS,17,SAMANÁ,17662,2011,5,Incidente,Sin informacion,Rural,5.524124,-75.002448,Florencia,"{'type': 'Point', 'coordinates': [-75.002448, 5.524124]}"
Sospecha de campo minado,CASANARE,85,RECETOR,85279,2003,4,Incidente,Sin informacion,Rural,5.294703,-72.754195,Sin información,"{'type': 'Point', 'coordinates': [-72.754195, 5.294703]}"
Desminado militar en operaciones,BOYACA,15,JERICÓ,15368,2012,1,Incidente,Sin informacion,Rural,6.158611,-72.610278,Vereda El Juncal,"{'type': 'Point', 'coordinates': [-72.610278, 6.158611]}"
Desminado militar en operaciones,ANTIOQUIA,5,DABEIBA,5234,2012,2,Incidente,Sin informacion,Rural,7.123056,-76.230833,Vereda La Esperanza,"{'type': 'Point', 'coordinates': [-76.230833, 7.123056]}"
Desminado militar en operaciones,CAUCA,19,TORIBÍO,19821,2012,1,Incidente,Sin informacion,Rural,2.95,-76.266111,Vereda La Bodega,"{'type': 'Point', 'coordinates': [-76.266111, 2.95]}"
Desminado militar en operaciones,HUILA,41,BARAYA,41078,2012,2,Incidente,Sin informacion,Rural,3.009722,-74.893889,Rio Blanco,"{'type': 'Point', 'coordinates': [-74.893889, 3.009722]}"
Desminado militar en operaciones,PUTUMAYO,86,VILLAGARZÓN,86885,2012,2,Incidente,Sin informacion,Rural,0.874444,-76.574444,Vereda San Luis,"{'type': 'Point', 'coordinates': [-76.574444, 0.874444]}"
Desminado militar en operaciones,ANTIOQUIA,5,ITUANGO,5361,2012,1,Incidente,Sin informacion,Rural,7.202222,-75.753056,Vereda La Onda,"{'type': 'Point', 'coordinates': [-75.753056, 7.202222]}"
Desminado militar en operaciones,NORTE DE SANTANDER,54,EL TARRA,54250,2012,1,Incidente,Sin informacion,Rural,8.584722,-73.088889,Base Militar El Tarra,"{'type': 'Point', 'coordinates': [-73.088889, 8.584722]}"
Desminado militar en operaciones,CUNDINAMARCA,25,VILLETA,25875,2012,2,Incidente,Sin informacion,Rural,4.9525,-74.504444,Vereda Alto De Torres,"{'type': 'Point', 'coordinates': [-74.504444, 4.9525]}"
Sospecha de campo minado,ANTIOQUIA,5,SONSÓN,5756,2012,1,Incidente,Sin informacion,Rural,5.686667,-75.276667,Vereda El Roblalito,"{'type': 'Point', 'coordinates': [-75.276667, 5.686667]}"
Desminado militar en operaciones,META,50,PUERTO GAITÁN,50568,2012,2,Incidente,Sin informacion,Rural,3.583333,-72.200556,Vereda Los Kioscos,"{'type': 'Point', 'coordinates': [-72.200556, 3.583333]}"
Desminado militar en operaciones,CAUCA,19,CORINTO,19212,2012,2,Incidente,Sin informacion,Rural,3.165278,-76.249444,Via El Tablon,"{'type': 'Point', 'coordinates': [-76.249444, 3.165278]}"
Desminado militar en operaciones,PUTUMAYO,86,ORITO,86320,2012,2,Incidente,Sin informacion,Rural,0.696389,-76.882778,Vereda Altomirador,"{'type': 'Point', 'coordinates': [-76.882778, 0.696389]}"
Desminado militar en operaciones,ANTIOQUIA,5,SAN FRANCISCO,5652,2004,1,Incidente,Sin informacion,Rural,5.943056,-75.0625,Vereda Aguacate,"{'type': 'Point', 'coordinates': [-75.0625, 5.943056]}"
Desminado militar en operaciones,ANTIOQUIA,5,SAN FRANCISCO,5652,2007,2,Incidente,Sin informacion,Rural,5.968333,-75.051389,El Pescado,"{'type': 'Point', 'coordinates': [-75.051389, 5.968333]}"
Desminado militar en operaciones,CAUCA,19,CALDONO,19137,2012,3,Incidente,Sin informacion,Rural,2.7925,-76.478333,Area General,"{'type': 'Point', 'coordinates': [-76.478333, 2.7925]}"
Desminado militar en operaciones,HUILA,41,BARAYA,41078,2012,3,Incidente,Sin informacion,Rural,3.088056,-74.897778,Vereda Bejucal,"{'type': 'Point', 'coordinates': [-74.897778, 3.088056]}"
Desminado militar en operaciones,VAUPES,97,MITÚ,97001,2012,3,Incidente,Sin informacion,Rural,0.858889,-70.851111,Circasia,"{'type': 'Point', 'coordinates': [-70.851111, 0.858889]}"
Desminado militar en operaciones,META,50,MESETAS,50330,2012,3,Incidente,Sin informacion,Rural,2.987778,-74.129444,Vereda Fronteras,"{'type': 'Point', 'coordinates': [-74.129444, 2.987778]}"
Desminado militar en operaciones,CAUCA,19,JAMBALÓ,19364,2012,2,Incidente,Sin informacion,Rural,2.779167,-76.325556,Salida Via Toribio,"{'type': 'Point', 'coordinates': [-76.325556, 2.779167]}"
Desminado militar en operaciones,META,50,URIBE,50370,2012,3,Incidente,Sin informacion,Rural,2.8125,-74.248056,Vereda La Espelda,"{'type': 'Point', 'coordinates': [-74.248056, 2.8125]}"
Desminado militar en operaciones,ARAUCA,81,ARAUQUITA,81065,2012,3,Incidente,Sin informacion,Rural,6.951667,-71.617222,"Vereda La Esmeralda, Km 56 Oleoducto Caño Limon Cobeñas","{'type': 'Point', 'coordinates': [-71.617222, 6.951667]}"
Accidente por MAP,HUILA,41,SAN AGUSTÍN,41668,2012,3,Accidente,Sin informacion,Rural,1.9902777777777776,-76.44555555555556,Sin información,"{'type': 'Point', 'coordinates': [-76.44555555555556, 1.9902777777777776]}"
Desminado militar en operaciones,BOLIVAR,13,ZAMBRANO,13894,2003,11,Incidente,Sin informacion,Rural,9.733253,-74.832099,Sector Petate,"{'type': 'Point', 'coordinates': [-74.832099, 9.733253]}"
Accidente por MAP,CORDOBA,23,TIERRALTA,23807,2012,2,Accidente,Sin informacion,Rural,8.181547,-76.05223,Sin información,"{'type': 'Point', 'coordinates': [-76.05223, 8.181547]}"
Desminado militar en operaciones,BOYACA,15,CHISCAS,15180,2012,3,Incidente,Sin informacion,Rural,6.656389,-72.482222,Casco Rural Vereda Candelario La Nueva,"{'type': 'Point', 'coordinates': [-72.482222, 6.656389]}"
Desminado militar en operaciones,ARAUCA,81,FORTUL,81300,2012,3,Incidente,Sin informacion,Rural,6.756944,-71.74,Agua Viva,"{'type': 'Point', 'coordinates': [-71.74, 6.756944]}"
Desminado militar en operaciones,QUINDIO,63,CÓRDOBA,63212,2012,3,Incidente,Sin informacion,Rural,4.421389,-75.609167,Vereda Las Auras,"{'type': 'Point', 'coordinates': [-75.609167, 4.421389]}"
Desminado militar en operaciones,CAQUETA,18,PUERTO RICO,18592,2012,3,Incidente,Sin informacion,Rural,2.036111,-75.036111,Vereda El Retorno,"{'type': 'Point', 'coordinates': [-75.036111, 2.036111]}"
Desminado militar en operaciones,ARAUCA,81,ARAUQUITA,81065,2012,3,Incidente,Sin informacion,Rural,6.912778,-71.390833,Fundacion,"{'type': 'Point', 'coordinates': [-71.390833, 6.912778]}"
Desminado militar en operaciones,META,50,MESETAS,50330,2012,3,Incidente,Sin informacion,Rural,3.25,-74.24,Vereda Palo Rojo,"{'type': 'Point', 'coordinates': [-74.24, 3.25]}"
Desminado militar en operaciones,ANTIOQUIA,5,SAN FRANCISCO,5652,2012,3,Incidente,Sin informacion,Rural,5.948611,-75.054167,Vereda Boqueron,"{'type': 'Point', 'coordinates': [-75.054167, 5.948611]}"
Desminado militar en operaciones,ARAUCA,81,ARAUQUITA,81065,2012,3,Incidente,Sin informacion,Rural,6.702778,-71.049444,Bocas Del Ele,"{'type': 'Point', 'coordinates': [-71.049444, 6.702778]}"
Desminado militar en operaciones,CUNDINAMARCA,25,CABRERA,25120,2000,5,Incidente,Sin informacion,Urbana,3.984124,-74.484762,Sin información,"{'type': 'Point', 'coordinates': [-74.484762, 3.984124]}"
Desminado militar en operaciones,ANTIOQUIA,5,SANTUARIO,5697,2001,12,Incidente,Sin informacion,Rural,6.141333,-75.268844,Sin información,"{'type': 'Point', 'coordinates': [-75.268844, 6.141333]}"
Desminado militar en operaciones,ANTIOQUIA,5,COCORNÁ,5197,2000,2,Incidente,Sin informacion,Rural,6.014722,-75.146667,Sin información,"{'type': 'Point', 'coordinates': [-75.146667, 6.014722]}"
Desminado militar en operaciones,ANTIOQUIA,5,SAN LUIS,5660,2000,2,Incidente,Sin informacion,Rural,6.045124,-74.996793,Sin información,"{'type': 'Point', 'coordinates': [-74.996793, 6.045124]}"
Desminado militar en operaciones,BOLIVAR,13,EL CARMEN DE BOLÍVAR,13244,2000,6,Incidente,Sin informacion,Rural,9.685015,-75.122094,Sin información,"{'type': 'Point', 'coordinates': [-75.122094, 9.685015]}"
Desminado militar en operaciones,TOLIMA,73,DOLORES,73236,2002,2,Incidente,Sin informacion,Rural,3.541993,-74.900328,Sin información,"{'type': 'Point', 'coordinates': [-74.900328, 3.541993]}"
Desminado militar en operaciones,CESAR,20,EL COPEY,20238,2002,2,Incidente,Sin informacion,Rural,10.151103,-73.960141,Sin información,"{'type': 'Point', 'coordinates': [-73.960141, 10.151103]}"
Desminado militar en operaciones,BOLIVAR,13,SAN MARTÍN DE LOBA,13667,1998,9,Incidente,Sin informacion,Rural,8.943412,-74.042273,Sin información,"{'type': 'Point', 'coordinates': [-74.042273, 8.943412]}"
Desminado militar en operaciones,NORTE DE SANTANDER,54,TIBÚ,54810,2010,2,Incidente,Sin informacion,Rural,8.939167,-73.031667,El Progreso,"{'type': 'Point', 'coordinates': [-73.031667, 8.939167]}"
Desminado militar en operaciones,VALLE DEL CAUCA,76,PALMIRA,76520,2002,4,Incidente,Sin informacion,Rural,3.493822,-76.352141,Sin información,"{'type': 'Point', 'coordinates': [-76.352141, 3.493822]}"
Desminado militar en operaciones,CAQUETA,18,BELÉN DE LOS ANDAQUÍES,18094,2003,2,Incidente,Sin informacion,Rural,1.416294,-75.872104,Sin información,"{'type': 'Point', 'coordinates': [-75.872104, 1.416294]}"
Desminado militar en operaciones,SANTANDER,68,BOLÍVAR,68101,2002,5,Incidente,Sin informacion,Rural,5.992002,-73.765952,Sin información,"{'type': 'Point', 'coordinates': [-73.765952, 5.992002]}"
Desminado militar en operaciones,ANTIOQUIA,5,AMALFI,5031,2002,4,Incidente,Sin informacion,Rural,6.973563,-74.88077,Sin información,"{'type': 'Point', 'coordinates': [-74.88077, 6.973563]}"
Desminado militar en operaciones,ANTIOQUIA,5,CAMPAMENTO,5134,2003,2,Incidente,Sin informacion,Rural,6.965556,-75.322778,Sin información,"{'type': 'Point', 'coordinates': [-75.322778, 6.965556]}"
Desminado militar en operaciones,ANTIOQUIA,5,SEGOVIA,5736,2002,8,Incidente,Sin informacion,Rural,7.26,-74.82,Sin información,"{'type': 'Point', 'coordinates': [-74.82, 7.26]}"
Desminado militar en operaciones,ANTIOQUIA,5,REMEDIOS,5604,2002,5,Incidente,Sin informacion,Rural,7.071111,-74.791667,Sin información,"{'type': 'Point', 'coordinates': [-74.791667, 7.071111]}"
Desminado militar en operaciones,CUNDINAMARCA,25,LA PEÑA,25398,2002,8,Incidente,Sin informacion,Rural,5.199962,-74.395233,Sin información,"{'type': 'Point', 'coordinates': [-74.395233, 5.199962]}"
Desminado militar en operaciones,CUNDINAMARCA,25,PULÍ,25580,2003,2,Incidente,Sin informacion,Rural,4.738056,-74.693056,Sin información,"{'type': 'Point', 'coordinates': [-74.693056, 4.738056]}"
Desminado militar en operaciones,SANTANDER,68,MATANZA,68444,2002,5,Incidente,Sin informacion,Rural,7.317122,-73.016985,Sin información,"{'type': 'Point', 'coordinates': [-73.016985, 7.317122]}"
Desminado militar en operaciones,MAGDALENA,47,CIÉNAGA,47189,2003,3,Incidente,Sin informacion,Rural,10.99492,-74.225174,Sin información,"{'type': 'Point', 'coordinates': [-74.225174, 10.99492]}"
Desminado militar en operaciones,NORTE DE SANTANDER,54,OCAÑA,54498,2002,8,Incidente,Sin informacion,Rural,8.236617,-73.358048,Sin información,"{'type': 'Point', 'coordinates': [-73.358048, 8.236617]}"
Desminado militar en operaciones,ARAUCA,81,SARAVENA,81736,2002,10,Incidente,Sin informacion,Rural,6.961668,-71.881734,Sin información,"{'type': 'Point', 'coordinates': [-71.881734, 6.961668]}"
Desminado militar en operaciones,CUNDINAMARCA,25,CABRERA,25120,2002,12,Incidente,Sin informacion,Rural,3.984124,-74.484762,Sin información,"{'type': 'Point', 'coordinates': [-74.484762, 3.984124]}"
Desminado militar en operaciones,LA GUAJIRA,44,URUMITA,44855,2003,8,Incidente,Sin informacion,Rural,10.558141,-73.014748,Sin información,"{'type': 'Point', 'coordinates': [-73.014748, 10.558141]}"
Desminado militar en operaciones,QUINDIO,63,SALENTO,63690,2003,6,Incidente,Sin informacion,Rural,4.639937,-75.572458,Sin información,"{'type': 'Point', 'coordinates': [-75.572458, 4.639937]}"
Desminado militar en operaciones,ANTIOQUIA,5,APARTADÓ,5045,2003,6,Incidente,Sin informacion,Rural,7.882098,-76.625111,Sin información,"{'type': 'Point', 'coordinates': [-76.625111, 7.882098]}"
Desminado militar en operaciones,CUNDINAMARCA,25,LA PALMA,25394,2003,6,Incidente,Sin informacion,Rural,5.363998,-74.393078,Sin información,"{'type': 'Point', 'coordinates': [-74.393078, 5.363998]}"
Desminado militar en operaciones,CASANARE,85,RECETOR,85279,2003,7,Incidente,Sin informacion,Rural,5.232478,-72.764543,Sin información,"{'type': 'Point', 'coordinates': [-72.764543, 5.232478]}"
Desminado militar en operaciones,META,50,LEJANÍAS,50400,2003,4,Incidente,Sin informacion,Rural,3.511915,-74.051803,Sin información,"{'type': 'Point', 'coordinates': [-74.051803, 3.511915]}"
Desminado militar en operaciones,META,50,PUERTO RICO,50590,2003,8,Incidente,Sin informacion,Rural,2.913056,-73.203333,Sin información,"{'type': 'Point', 'coordinates': [-73.203333, 2.913056]}"
Desminado militar en operaciones,GUAVIARE,95,CALAMAR,95015,2003,8,Incidente,Sin informacion,Rural,1.965813,-72.642846,Sin información,"{'type': 'Point', 'coordinates': [-72.642846, 1.965813]}"
Desminado militar en operaciones,CAQUETA,18,EL PAUJIL,18256,2003,9,Incidente,Sin informacion,Rural,1.564369,-75.332045,Sin información,"{'type': 'Point', 'coordinates': [-75.332045, 1.564369]}"
Desminado militar en operaciones,BOLIVAR,13,CALAMAR,13140,2003,9,Incidente,Sin informacion,Rural,10.261675,-74.922656,Sin información,"{'type': 'Point', 'coordinates': [-74.922656, 10.261675]}"
Desminado militar en operaciones,CESAR,20,BECERRIL,20045,2002,2,Incidente,Sin informacion,Rural,9.697778,-73.255556,Sin información,"{'type': 'Point', 'coordinates': [-73.255556, 9.697778]}"
Desminado militar en operaciones,CUNDINAMARCA,25,MEDINA,25438,2003,12,Incidente,Sin informacion,Rural,4.514584,-73.354684,Sin información,"{'type': 'Point', 'coordinates': [-73.354684, 4.514584]}"
Desminado militar en operaciones,ARAUCA,81,TAME,81794,2004,1,Incidente,Sin informacion,Rural,6.462331,-71.739004,Sin información,"{'type': 'Point', 'coordinates': [-71.739004, 6.462331]}"
Desminado militar en operaciones,SANTANDER,68,SABANA DE TORRES,68655,2004,1,Incidente,Sin informacion,Rural,7.337222,-73.448333,Sin información,"{'type': 'Point', 'coordinates': [-73.448333, 7.337222]}"
Desminado militar en operaciones,GUAVIARE,95,EL RETORNO,95025,2004,2,Incidente,Sin informacion,Rural,2.134722,-72.583611,Sin información,"{'type': 'Point', 'coordinates': [-72.583611, 2.134722]}"
Desminado militar en operaciones,ARAUCA,81,TAME,81794,2004,1,Incidente,Sin informacion,Rural,6.255833,-71.961667,Sin información,"{'type': 'Point', 'coordinates': [-71.961667, 6.255833]}"
Desminado militar en operaciones,META,50,EL CASTILLO,50251,2004,3,Incidente,Sin informacion,Rural,3.565374,-73.798315,Sin información,"{'type': 'Point', 'coordinates': [-73.798315, 3.565374]}"
Desminado militar en operaciones,CUNDINAMARCA,25,LA PALMA,25394,2004,1,Incidente,Sin informacion,Rural,5.304944,-74.439,Sin información,"{'type': 'Point', 'coordinates': [-74.439, 5.304944]}"
Desminado militar en operaciones,SANTANDER,68,SIMACOTA,68745,2004,4,Incidente,Sin informacion,Rural,6.4473,-73.341498,Sin información,"{'type': 'Point', 'coordinates': [-73.341498, 6.4473]}"
Desminado militar en operaciones,CAQUETA,18,CARTAGENA DEL CHAIRÁ,18150,2004,4,Incidente,Sin informacion,Rural,1.298056,-74.658056,Sin información,"{'type': 'Point', 'coordinates': [-74.658056, 1.298056]}"
Desminado militar en operaciones,ARAUCA,81,TAME,81794,2004,4,Incidente,Sin informacion,Rural,6.500556,-71.367778,Sin información,"{'type': 'Point', 'coordinates': [-71.367778, 6.500556]}"
Desminado militar en operaciones,CAQUETA,18,BELÉN DE LOS ANDAQUÍES,18094,2003,5,Incidente,Sin informacion,Rural,1.416294,-75.872104,Sin información,"{'type': 'Point', 'coordinates': [-75.872104, 1.416294]}"
Desminado militar en operaciones,CAQUETA,18,CARTAGENA DEL CHAIRÁ,18150,2010,2,Incidente,Sin informacion,Rural,1.321111,-74.811944,Vereda Las Marimbas,"{'type': 'Point', 'coordinates': [-74.811944, 1.321111]}"
Desminado militar en operaciones,VAUPES,97,MITÚ,97001,2004,5,Incidente,Sin informacion,Rural,1.228056,-70.246111,Sin información,"{'type': 'Point', 'coordinates': [-70.246111, 1.228056]}"
Desminado militar en operaciones,BOLIVAR,13,MORALES,13473,2004,8,Incidente,Sin informacion,Rural,8.323889,-74.116944,Sin información,"{'type': 'Point', 'coordinates': [-74.116944, 8.323889]}"
Desminado militar en operaciones,ANTIOQUIA,5,URRAO,5847,2004,7,Incidente,Sin informacion,Rural,6.380278,-76.155833,Sin información,"{'type': 'Point', 'coordinates': [-76.155833, 6.380278]}"
Desminado militar en operaciones,HUILA,41,ISNOS,41359,2004,10,Incidente,Sin informacion,Rural,1.935591,-76.240579,Sin información,"{'type': 'Point', 'coordinates': [-76.240579, 1.935591]}"
Desminado militar en operaciones,CAUCA,19,SANTA ROSA,19701,2005,1,Incidente,Sin informacion,Rural,1.734444,-76.480556,Sin información,"{'type': 'Point', 'coordinates': [-76.480556, 1.734444]}"
Desminado militar en operaciones,META,50,VISTAHERMOSA,50711,2004,6,Incidente,Sin informacion,Rural,3.109167,-73.791389,Sin información,"{'type': 'Point', 'coordinates': [-73.791389, 3.109167]}"
Desminado militar en operaciones,PUTUMAYO,86,PUERTO CAICEDO,86569,2004,6,Incidente,Sin informacion,Rural,0.701389,-76.419444,Sin información,"{'type': 'Point', 'coordinates': [-76.419444, 0.701389]}"
Desminado militar en operaciones,LA GUAJIRA,44,LA JAGUA DEL PILAR,44420,2003,6,Incidente,Sin informacion,Rural,10.5145,-73.075638,Sin información,"{'type': 'Point', 'coordinates': [-73.075638, 10.5145]}"
Desminado militar en operaciones,PUTUMAYO,86,VILLAGARZÓN,86885,2004,7,Incidente,Sin informacion,Rural,0.906944444444444,-76.6794444444444,Sin información,"{'type': 'Point', 'coordinates': [-76.6794444444444, 0.906944444444444]}"
Desminado militar en operaciones,CAUCA,19,CALOTO,19142,2005,2,Incidente,Sin informacion,Rural,3.037081,-76.411678,Sin información,"{'type': 'Point', 'coordinates': [-76.411678, 3.037081]}"
Desminado militar en operaciones,HUILA,41,NEIVA,41001,2005,3,Incidente,Sin informacion,Rural,2.966667,-75.248056,Sin información,"{'type': 'Point', 'coordinates': [-75.248056, 2.966667]}"
Desminado militar en operaciones,HUILA,41,GIGANTE,41306,2005,5,Incidente,Sin informacion,Rural,2.391251,-75.551613,Sin información,"{'type': 'Point', 'coordinates': [-75.551613, 2.391251]}"
Desminado militar en operaciones,META,50,PUERTO RICO,50590,2006,5,Incidente,Sin informacion,Rural,2.939542,-73.207891,Sin información,"{'type': 'Point', 'coordinates': [-73.207891, 2.939542]}"
Desminado militar en operaciones,BOLIVAR,13,EL CARMEN DE BOLÍVAR,13244,2005,5,Incidente,Sin informacion,Rural,9.685015,-75.122094,Sin información,"{'type': 'Point', 'coordinates': [-75.122094, 9.685015]}"
Desminado militar en operaciones,META,50,VISTAHERMOSA,50711,2005,2,Incidente,Sin informacion,Rural,2.906389,-73.548889,Sin información,"{'type': 'Point', 'coordinates': [-73.548889, 2.906389]}"
Desminado militar en operaciones,PUTUMAYO,86,PUERTO ASÍS,86568,2005,7,Incidente,Sin informacion,Rural,0.501389,-76.52,Sin información,"{'type': 'Point', 'coordinates': [-76.52, 0.501389]}"
Desminado militar en operaciones,CAQUETA,18,BELÉN DE LOS ANDAQUÍES,18094,2005,1,Incidente,Sin informacion,Rural,1.568056,-75.863333,Sin información,"{'type': 'Point', 'coordinates': [-75.863333, 1.568056]}"
Desminado militar en operaciones,CALDAS,17,MARULANDA,17446,2005,7,Incidente,Sin informacion,Rural,5.28699,-75.263476,Sin información,"{'type': 'Point', 'coordinates': [-75.263476, 5.28699]}"
Desminado militar en operaciones,META,50,PUERTO RICO,50590,2010,2,Incidente,Sin informacion,Rural,2.754444,-73.199167,La Primavera,"{'type': 'Point', 'coordinates': [-73.199167, 2.754444]}"
Desminado militar en operaciones,META,50,URIBE,50370,2010,2,Incidente,Sin informacion,Rural,2.736944,-74.383333,El Platanillo,"{'type': 'Point', 'coordinates': [-74.383333, 2.736944]}"
Desminado militar en operaciones,META,50,VISTAHERMOSA,50711,2010,2,Incidente,Sin informacion,Rural,2.8775,-73.506667,Vereda La Cabaña,"{'type': 'Point', 'coordinates': [-73.506667, 2.8775]}"
Desminado militar en operaciones,BOLIVAR,13,EL CARMEN DE BOLÍVAR,13244,2005,8,Incidente,Sin informacion,Rural,9.625,-75.044444,Sin información,"{'type': 'Point', 'coordinates': [-75.044444, 9.625]}"
Desminado militar en operaciones,ANTIOQUIA,5,REMEDIOS,5604,2005,8,Incidente,Sin informacion,Rural,7.030573,-74.696332,Sin información,"{'type': 'Point', 'coordinates': [-74.696332, 7.030573]}"
Desminado militar en operaciones,META,50,PUERTO RICO,50590,2005,9,Incidente,Sin informacion,Rural,2.940912,-73.216122,Sin información,"{'type': 'Point', 'coordinates': [-73.216122, 2.940912]}"
Desminado militar en operaciones,META,50,PUERTO RICO,50590,2005,10,Incidente,Sin informacion,Rural,2.940912,-73.216122,Sin información,"{'type': 'Point', 'coordinates': [-73.216122, 2.940912]}"
Desminado militar en operaciones,META,50,URIBE,50370,2005,11,Incidente,Sin informacion,Rural,3.247058,-74.349031,Sin información,"{'type': 'Point', 'coordinates': [-74.349031, 3.247058]}"
Desminado militar en operaciones,CESAR,20,AGUSTÍN CODAZZI,20013,2005,11,Incidente,Sin informacion,Rural,10.035868,-73.239035,Sin información,"{'type': 'Point', 'coordinates': [-73.239035, 10.035868]}"
Desminado militar en operaciones,TOLIMA,73,PLANADAS,73555,2005,12,Incidente,Sin informacion,Rural,3.197708,-75.648339,Sin información,"{'type': 'Point', 'coordinates': [-75.648339, 3.197708]}"
Desminado militar en operaciones,ANTIOQUIA,5,SONSÓN,5756,2005,12,Incidente,Sin informacion,Rural,5.798889,-75.274444,Sin información,"{'type': 'Point', 'coordinates': [-75.274444, 5.798889]}"
Desminado militar en operaciones,CHOCO,27,BAGADÓ,27073,2006,1,Incidente,Sin informacion,Rural,5.496667,-76.161667,Sin información,"{'type': 'Point', 'coordinates': [-76.161667, 5.496667]}"
Desminado militar en operaciones,NORTE DE SANTANDER,54,SARDINATA,54720,2006,2,Incidente,Sin informacion,Rural,8.083016,-72.801023,Sin información,"{'type': 'Point', 'coordinates': [-72.801023, 8.083016]}"
Desminado militar en operaciones,HUILA,41,ALGECIRAS,41020,2006,4,Incidente,Sin informacion,Rural,2.591667,-75.143889,Sin información,"{'type': 'Point', 'coordinates': [-75.143889, 2.591667]}"
Desminado militar en operaciones,BOLIVAR,13,ALTOS DEL ROSARIO,13030,2006,3,Incidente,Sin informacion,Rural,8.790984,-74.16891,Sin información,"{'type': 'Point', 'coordinates': [-74.16891, 8.790984]}"
Desminado militar en operaciones,ANTIOQUIA,5,VALDIVIA,5854,2004,3,Incidente,Sin informacion,Rural,7.167399,-75.441469,Sin información,"{'type': 'Point', 'coordinates': [-75.441469, 7.167399]}"
Desminado militar en operaciones,META,50,URIBE,50370,2006,4,Incidente,Sin informacion,Rural,3.200278,-74.345,Sin información,"{'type': 'Point', 'coordinates': [-74.345, 3.200278]}"
Desminado militar en operaciones,CHOCO,27,BAGADÓ,27073,2006,7,Incidente,Sin informacion,Rural,5.418889,-76.404444,Sin información,"{'type': 'Point', 'coordinates': [-76.404444, 5.418889]}"
Desminado militar en operaciones,BOLIVAR,13,EL CARMEN DE BOLÍVAR,13244,2006,3,Incidente,Sin informacion,Rural,9.684722,-75.325,Sin información,"{'type': 'Point', 'coordinates': [-75.325, 9.684722]}"
Desminado militar en operaciones,BOLIVAR,13,EL CARMEN DE BOLÍVAR,13244,2006,2,Incidente,Sin informacion,Rural,9.704167,-75.316667,Sin información,"{'type': 'Point', 'coordinates': [-75.316667, 9.704167]}"
Desminado militar en operaciones,CAUCA,19,TOTORÓ,19824,2006,8,Incidente,Sin informacion,Rural,2.511737,-76.400933,Sin información,"{'type': 'Point', 'coordinates': [-76.400933, 2.511737]}"
Desminado militar en operaciones,CAQUETA,18,SAN VICENTE DEL CAGUÁN,18753,2006,8,Incidente,Sin informacion,Rural,2.477778,-74.979167,Sin información,"{'type': 'Point', 'coordinates': [-74.979167, 2.477778]}"
Desminado militar en operaciones,VALLE DEL CAUCA,76,BUGA,76111,2006,8,Incidente,Sin informacion,Rural,3.778056,-76.055556,Sin información,"{'type': 'Point', 'coordinates': [-76.055556, 3.778056]}"
Desminado militar en operaciones,BOLIVAR,13,EL CARMEN DE BOLÍVAR,13244,2004,3,Incidente,Sin informacion,Rural,9.685015,-75.122094,Sin información,"{'type': 'Point', 'coordinates': [-75.122094, 9.685015]}"
Desminado militar en operaciones,PUTUMAYO,86,ORITO,86320,2006,9,Incidente,Sin informacion,Rural,0.664866,-76.869171,Sin información,"{'type': 'Point', 'coordinates': [-76.869171, 0.664866]}"
Desminado militar en operaciones,CUNDINAMARCA,25,LA PALMA,25394,2003,6,Incidente,Sin informacion,Rural,5.363998,-74.393078,Sin información,"{'type': 'Point', 'coordinates': [-74.393078, 5.363998]}"
Accidente por MAP,ANTIOQUIA,5,ALEJANDRÍA,5021,2003,6,Accidente,Centro de salud,Rural,6.388611111111112,-75.06555555555556,El Respaldo,"{'type': 'Point', 'coordinates': [-75.06555555555556, 6.3886111111111115]}"
Desminado militar en operaciones,META,50,MESETAS,50330,2006,9,Incidente,Sin informacion,Rural,3.380371,-74.042419,Sin información,"{'type': 'Point', 'coordinates': [-74.042419, 3.380371]}"
Desminado militar en operaciones,BOLIVAR,13,EL CARMEN DE BOLÍVAR,13244,2004,6,Incidente,Sin informacion,Rural,9.72129628532,-75.1224120803,Sector San Francisco,"{'type': 'Point', 'coordinates': [-75.1224120803, 9.72129628532]}"
Desminado militar en operaciones,META,50,PUERTO RICO,50590,2006,7,Incidente,Sin informacion,Rural,2.770556,-73.1225,Sin información,"{'type': 'Point', 'coordinates': [-73.1225, 2.770556]}"
Desminado militar en operaciones,ANTIOQUIA,5,ITUANGO,5361,2006,8,Incidente,Sin informacion,Rural,7.238056,-75.86,Sin información,"{'type': 'Point', 'coordinates': [-75.86, 7.238056]}"
Desminado militar en operaciones,ANTIOQUIA,5,ARGELIA,5055,2006,8,Incidente,Sin informacion,Rural,5.696389,-75.071389,Sin información,"{'type': 'Point', 'coordinates': [-75.071389, 5.696389]}"
Desminado militar en operaciones,BOLIVAR,13,EL CARMEN DE BOLÍVAR,13244,2004,10,Incidente,Sin informacion,Rural,9.72129628532,-75.1224120803,Sector Carare,"{'type': 'Point', 'coordinates': [-75.1224120803, 9.72129628532]}"
Desminado militar en operaciones,META,50,PUERTO RICO,50590,2006,11,Incidente,Sin informacion,Rural,2.810556,-73.42,Sin información,"{'type': 'Point', 'coordinates': [-73.42, 2.810556]}"
Desminado militar en operaciones,BOLIVAR,13,EL CARMEN DE BOLÍVAR,13244,2005,1,Incidente,Sin informacion,Rural,9.72129628532,-75.1224120803,Alrededor Estadio,"{'type': 'Point', 'coordinates': [-75.1224120803, 9.72129628532]}"
Desminado militar en operaciones,TOLIMA,73,CAJAMARCA,73124,2007,3,Incidente,Sin informacion,Rural,4.441646,-75.426627,Sin información,"{'type': 'Point', 'coordinates': [-75.426627, 4.441646]}"
Desminado militar en operaciones,BOYACA,15,PISBA,15550,2007,3,Incidente,Sin informacion,Rural,5.743056,-72.500556,Sin información,"{'type': 'Point', 'coordinates': [-72.500556, 5.743056]}"
Desminado militar en operaciones,NORTE DE SANTANDER,54,TEORAMA,54800,2007,4,Incidente,Sin informacion,Rural,8.604167,-73.237778,Sin información,"{'type': 'Point', 'coordinates': [-73.237778, 8.604167]}"
Desminado militar en operaciones,CAQUETA,18,MONTAÑITA,18410,2007,5,Incidente,Sin informacion,Rural,1.275,-75.206667,Sin información,"{'type': 'Point', 'coordinates': [-75.206667, 1.275]}"
Desminado militar en operaciones,CAUCA,19,ARGELIA,19050,2007,5,Incidente,Sin informacion,Rural,2.17916666666667,-77.2183333333333,Sin información,"{'type': 'Point', 'coordinates': [-77.2183333333333, 2.17916666666667]}"
Desminado militar en operaciones,ANTIOQUIA,5,NARIÑO,5483,2007,6,Incidente,Sin informacion,Rural,5.459444,-75.273889,Sin información,"{'type': 'Point', 'coordinates': [-75.273889, 5.459444]}"
Desminado militar en operaciones,CAUCA,19,CORINTO,19212,2007,4,Incidente,Sin informacion,Rural,3.140556,-76.213056,Sin información,"{'type': 'Point', 'coordinates': [-76.213056, 3.140556]}"
Desminado militar en operaciones,BOLIVAR,13,SAN PABLO,13670,2007,9,Incidente,Sin informacion,Rural,7.483919,-73.933361,Sin información,"{'type': 'Point', 'coordinates': [-73.933361, 7.483919]}"
Desminado militar en operaciones,PUTUMAYO,86,VILLAGARZÓN,86885,2010,2,Incidente,Sin informacion,Rural,0.886389,-76.575556,Puerto Umbría,"{'type': 'Point', 'coordinates': [-76.575556, 0.886389]}"
Desminado militar en operaciones,TOLIMA,73,PLANADAS,73555,2007,7,Incidente,Sin informacion,Rural,2.989444,-75.751667,Sin información,"{'type': 'Point', 'coordinates': [-75.751667, 2.989444]}"
Desminado militar en operaciones,TOLIMA,73,PLANADAS,73555,2007,9,Incidente,Sin informacion,Rural,3.197458,-75.643224,Sin información,"{'type': 'Point', 'coordinates': [-75.643224, 3.197458]}"
Desminado militar en operaciones,BOLIVAR,13,EL CARMEN DE BOLÍVAR,13244,2007,6,Incidente,Sin informacion,Rural,9.6025,-75.082222,Sin información,"{'type': 'Point', 'coordinates': [-75.082222, 9.6025]}"
Desminado militar en operaciones,NARIÑO,52,IPIALES,52356,2007,10,Incidente,Sin informacion,Rural,0.826836,-77.638252,Sin información,"{'type': 'Point', 'coordinates': [-77.638252, 0.826836]}"
Desminado militar en operaciones,BOLIVAR,13,CANTAGALLO,13160,2007,11,Incidente,Sin informacion,Rural,7.271111,-74.105556,Sin información,"{'type': 'Point', 'coordinates': [-74.105556, 7.271111]}"
Desminado militar en operaciones,BOYACA,15,SOCOTÁ,15755,2007,10,Incidente,Sin informacion,Rural,5.989664,-72.629194,Sin información,"{'type': 'Point', 'coordinates': [-72.629194, 5.989664]}"
Desminado militar en operaciones,NORTE DE SANTANDER,54,EL TARRA,54250,2007,11,Incidente,Sin informacion,Rural,8.616944,-73.073333,Sin información,"{'type': 'Point', 'coordinates': [-73.073333, 8.616944]}"
Desminado militar en operaciones,BOLIVAR,13,EL CARMEN DE BOLÍVAR,13244,2007,5,Incidente,Sin informacion,Rural,9.706667,-75.129722,Sin información,"{'type': 'Point', 'coordinates': [-75.129722, 9.706667]}"
Desminado militar en operaciones,TOLIMA,73,PLANADAS,73555,2008,1,Incidente,Sin informacion,Rural,2.986389,-75.768056,Sin información,"{'type': 'Point', 'coordinates': [-75.768056, 2.986389]}"
Incautaciones,ARAUCA,81,TAME,81794,2009,3,Incidente,Campamentos ilegales,Rural,6.570556,-71.415,La Florida Baja,"{'type': 'Point', 'coordinates': [-71.415, 6.570556]}"
Desminado militar en operaciones,NORTE DE SANTANDER,54,EL TARRA,54250,2008,1,Incidente,Sin informacion,Rural,8.700278,-73.022222,Sin información,"{'type': 'Point', 'coordinates': [-73.022222, 8.700278]}"
Desminado militar en operaciones,HUILA,41,AIPE,41016,2008,1,Incidente,Sin informacion,Rural,3.222776,-75.238066,Sin información,"{'type': 'Point', 'coordinates': [-75.238066, 3.222776]}"
Desminado militar en operaciones,META,50,MESETAS,50330,2008,1,Incidente,Sin informacion,Rural,3.211111,-74.105278,Sin información,"{'type': 'Point', 'coordinates': [-74.105278, 3.211111]}"
Desminado militar en operaciones,CAUCA,19,SILVIA,19743,2008,2,Incidente,Sin informacion,Rural,2.612476,-76.379474,Sin información,"{'type': 'Point', 'coordinates': [-76.379474, 2.612476]}"
Desminado militar en operaciones,ARAUCA,81,ARAUQUITA,81065,2008,4,Incidente,Sin informacion,Rural,7.023186,-71.384978,Sin información,"{'type': 'Point', 'coordinates': [-71.384978, 7.023186]}"
Desminado militar en operaciones,ANTIOQUIA,5,ANORÍ,5040,2008,4,Incidente,Sin informacion,Rural,7.073333,-75.147222,Sin información,"{'type': 'Point', 'coordinates': [-75.147222, 7.073333]}"
Desminado militar en operaciones,NORTE DE SANTANDER,54,EL CARMEN,54245,2008,5,Incidente,Sin informacion,Rural,8.507478,-73.44629,Sin información,"{'type': 'Point', 'coordinates': [-73.44629, 8.507478]}"
Desminado militar en operaciones,META,50,PUERTO RICO,50590,2008,5,Incidente,Sin informacion,Rural,2.939542,-73.207891,Sin información,"{'type': 'Point', 'coordinates': [-73.207891, 2.939542]}"
Desminado militar en operaciones,BOLIVAR,13,CÓRDOBA,13212,2007,3,Incidente,Sin informacion,Rural,9.633056,-74.909722,Sin información,"{'type': 'Point', 'coordinates': [-74.909722, 9.633056]}"
Desminado militar en operaciones,CAUCA,19,MIRANDA,19455,2012,4,Incidente,Sin informacion,Rural,3.233056,-76.226667,Hacienda Las Pilas,"{'type': 'Point', 'coordinates': [-76.226667, 3.233056]}"
Desminado militar en operaciones,GUAVIARE,95,CALAMAR,95015,2012,4,Incidente,Sin informacion,Rural,1.951111,-72.518889,Ag.Vrda La Argelia,"{'type': 'Point', 'coordinates': [-72.518889, 1.951111]}"
Desminado militar en operaciones,META,50,VISTAHERMOSA,50711,2012,4,Incidente,Sin informacion,Rural,2.395833,-73.291389,Caño San José,"{'type': 'Point', 'coordinates': [-73.291389, 2.395833]}"
Desminado militar en operaciones,NARIÑO,52,IPIALES,52356,2012,4,Incidente,Sin informacion,Rural,0.385556,-77.19,Vereda San Jose De Los Pinos,"{'type': 'Point', 'coordinates': [-77.19, 0.385556]}"
Incautaciones,ANTIOQUIA,5,APARTADÓ,5045,2009,4,Incidente,Campamentos ilegales,Rural,7.968333,-76.510556,El Porvenir,"{'type': 'Point', 'coordinates': [-76.510556, 7.968333]}"
Desminado militar en operaciones,ARAUCA,81,TAME,81794,2012,4,Incidente,Sin informacion,Rural,6.539444,-71.7075,Via Principal Que Conduce A Fortul,"{'type': 'Point', 'coordinates': [-71.7075, 6.539444]}"
Desminado militar en operaciones,VALLE DEL CAUCA,76,PALMIRA,76520,2012,4,Incidente,Sin informacion,Rural,3.496667,-76.132222,Hacienda La Maria,"{'type': 'Point', 'coordinates': [-76.132222, 3.496667]}"
Desminado militar en operaciones,HUILA,41,TELLO,41799,2012,4,Incidente,Sin informacion,Rural,2.982222,-74.929722,Vereda La Profunda,"{'type': 'Point', 'coordinates': [-74.929722, 2.982222]}"
Desminado militar en operaciones,TOLIMA,73,PLANADAS,73555,2012,4,Incidente,Sin informacion,Rural,2.948333,-75.771944,Vereda La Hacienda,"{'type': 'Point', 'coordinates': [-75.771944, 2.948333]}"
Desminado militar en operaciones,ARAUCA,81,TAME,81794,2012,4,Incidente,Sin informacion,Rural,6.465278,-71.403889,La Holanda,"{'type': 'Point', 'coordinates': [-71.403889, 6.465278]}"
Desminado militar en operaciones,CASANARE,85,TÁMARA,85400,2012,4,Incidente,Sin informacion,Rural,5.959167,-72.013333,Las Mesas,"{'type': 'Point', 'coordinates': [-72.013333, 5.959167]}"
Accidente por MAP,CAUCA,19,CALOTO,19142,2012,6,Accidente,Sin informacion,Rural,3.0591666666666666,-76.3711111111111,Sin información,"{'type': 'Point', 'coordinates': [-76.3711111111111, 3.0591666666666666]}"
Desminado militar en operaciones,META,50,MESETAS,50330,2012,5,Incidente,Sin informacion,Rural,3.255278,-74.125278,El Porvenir,"{'type': 'Point', 'coordinates': [-74.125278, 3.255278]}"
Desminado militar en operaciones,ANTIOQUIA,5,GRANADA,5313,2012,5,Incidente,Sin informacion,Rural,6.124722,-75.099444,Vereda Santa Ana,"{'type': 'Point', 'coordinates': [-75.099444, 6.124722]}"
Desminado militar en operaciones,CAQUETA,18,CARTAGENA DEL CHAIRÁ,18150,2012,5,Incidente,Sin informacion,Rural,0.791944,-74.660833,Vereda Flandes,"{'type': 'Point', 'coordinates': [-74.660833, 0.791944]}"
Desminado militar en operaciones,CAUCA,19,CAJIBÍO,19130,2012,5,Incidente,Sin informacion,Rural,2.555556,-76.565833,San Bernardino,"{'type': 'Point', 'coordinates': [-76.565833, 2.555556]}"
Desminado militar en operaciones,GUAVIARE,95,CALAMAR,95015,2012,5,Incidente,Sin informacion,Rural,1.969167,-72.586111,Ag. Vereda La Argelia,"{'type': 'Point', 'coordinates': [-72.586111, 1.969167]}"
Desminado militar en operaciones,CORDOBA,23,TIERRALTA,23807,2012,5,Incidente,Sin informacion,Rural,7.882778,-76.094278,El Silencio,"{'type': 'Point', 'coordinates': [-76.094278, 7.882778]}"
Desminado militar en operaciones,META,50,URIBE,50370,2011,12,Incidente,Sin informacion,Rural,2.569167,-74.120833,Vereda Brisas Del Guayabero,"{'type': 'Point', 'coordinates': [-74.120833, 2.569167]}"
Desminado militar en operaciones,ARAUCA,81,SARAVENA,81736,2012,5,Incidente,Sin informacion,Rural,6.846667,-71.792778,Barrancones,"{'type': 'Point', 'coordinates': [-71.792778, 6.846667]}"
Desminado militar en operaciones,NORTE DE SANTANDER,54,CONVENCIÓN,54206,2012,5,Incidente,Sin informacion,Rural,8.721944,-73.2775,Guasiles Sur,"{'type': 'Point', 'coordinates': [-73.2775, 8.721944]}"
Desminado militar en operaciones,CAUCA,19,SILVIA,19743,2012,5,Incidente,Sin informacion,Rural,2.6225,-76.390278,Vda. Las Cruces,"{'type': 'Point', 'coordinates': [-76.390278, 2.6225]}"
Desminado militar en operaciones,ANTIOQUIA,5,ANORÍ,5040,2012,6,Incidente,Sin informacion,Rural,7.205833,-75.060556,Toma De Aljibes,"{'type': 'Point', 'coordinates': [-75.060556, 7.205833]}"
Desminado militar en operaciones,NORTE DE SANTANDER,54,EL TARRA,54250,2012,6,Incidente,Sin informacion,Rural,8.656389,-73.035556,El Salado,"{'type': 'Point', 'coordinates': [-73.035556, 8.656389]}"
Desminado militar en operaciones,META,50,VISTAHERMOSA,50711,2012,6,Incidente,Sin informacion,Rural,3.021389,-73.621944,Caño Bañadera Sector Los Andes,"{'type': 'Point', 'coordinates': [-73.621944, 3.021389]}"
Desminado militar en operaciones,ARAUCA,81,PUERTO RONDÓN,81591,2012,6,Incidente,Sin informacion,Rural,6.541111,-71.132778,El Progreso,"{'type': 'Point', 'coordinates': [-71.132778, 6.541111]}"
Desminado militar en operaciones,PUTUMAYO,86,SAN MIGUEL,86757,2012,6,Incidente,Sin informacion,Rural,0.331944,-76.920556,Vereda El Limonar,"{'type': 'Point', 'coordinates': [-76.920556, 0.331944]}"
Desminado militar en operaciones,HUILA,41,SAN AGUSTÍN,41668,2012,6,Incidente,Sin informacion,Rural,2.12,-76.41,Vereda La Mina,"{'type': 'Point', 'coordinates': [-76.41, 2.12]}"
Desminado militar en operaciones,ANTIOQUIA,5,GRANADA,5313,2012,6,Incidente,Sin informacion,Rural,6.080833,-75.089167,Vereda La Florida,"{'type': 'Point', 'coordinates': [-75.089167, 6.080833]}"
Desminado militar en operaciones,VALLE DEL CAUCA,76,FLORIDA,76275,2012,6,Incidente,Sin informacion,Rural,3.241667,-76.167222,Vereda Brisas,"{'type': 'Point', 'coordinates': [-76.167222, 3.241667]}"
Desminado militar en operaciones,ARAUCA,81,ARAUQUITA,81065,2012,6,Incidente,Sin informacion,Rural,6.926389,-71.508056,Caño Danta,"{'type': 'Point', 'coordinates': [-71.508056, 6.926389]}"
Accidente por MAP,PUTUMAYO,86,VALLE DEL GUAMUEZ,86865,2012,2,Accidente,Sin informacion,Rural,0.424591,-76.905657,Sin información,"{'type': 'Point', 'coordinates': [-76.905657, 0.424591]}"
Desminado militar en operaciones,BOLIVAR,13,SANTA ROSA DEL SUR,13688,2012,6,Incidente,Sin informacion,Rural,7.9108333333,-74.323,Mina Golfo,"{'type': 'Point', 'coordinates': [-74.323, 7.9108333333]}"
Desminado militar en operaciones,TOLIMA,73,PLANADAS,73555,2012,6,Incidente,Sin informacion,Rural,3.1875,-75.697222,Vereda Campo Alegre,"{'type': 'Point', 'coordinates': [-75.697222, 3.1875]}"
Desminado militar en operaciones,CAUCA,19,PÁEZ,19517,2012,7,Incidente,Sin informacion,Rural,2.596111,-75.967778,Vereda La Florida,"{'type': 'Point', 'coordinates': [-75.967778, 2.596111]}"
Desminado militar en operaciones,ANTIOQUIA,5,DABEIBA,5234,2012,7,Incidente,Sin informacion,Rural,7.081667,-76.032778,Aguas Frias,"{'type': 'Point', 'coordinates': [-76.032778, 7.081667]}"
Desminado militar en operaciones,ANTIOQUIA,5,EL BAGRE,5250,2012,7,Incidente,Sin informacion,Rural,7.824167,-74.687222,Cuchilla Perra Brava,"{'type': 'Point', 'coordinates': [-74.687222, 7.824167]}"
Desminado militar en operaciones,ANTIOQUIA,5,GRANADA,5313,2012,7,Incidente,Sin informacion,Rural,6.083333,-75.088889,Vereda La Florida,"{'type': 'Point', 'coordinates': [-75.088889, 6.083333]}"
Desminado militar en operaciones,NORTE DE SANTANDER,54,CONVENCIÓN,54206,2012,7,Incidente,Sin informacion,Rural,8.7325,-73.260556,Vda. Guaciles Norte,"{'type': 'Point', 'coordinates': [-73.260556, 8.7325]}"
Sospecha de campo minado,SANTANDER,68,EL CARMEN,68235,1991,12,Incidente,Fincas,Rural,6.703536,-73.509679,Ap/Vtr-04,"{'type': 'Point', 'coordinates': [-73.509679, 6.703536]}"
Sospecha de campo minado,ANTIOQUIA,5,GRANADA,5313,2011,8,Incidente,Caminos,Rural,6.143703,-75.185183,Ap/Vlq-05,"{'type': 'Point', 'coordinates': [-75.185183, 6.143703]}"
Desminado militar en operaciones,ANTIOQUIA,5,SAN ANDRÉS,5647,2012,7,Incidente,Sin informacion,Rural,6.903611,-75.591111,El Telesferico,"{'type': 'Point', 'coordinates': [-75.591111, 6.903611]}"
Sospecha de campo minado,META,50,EL DORADO,50270,2009,8,Incidente,Sin informacion,Rural,3.688114,-73.864885,Vereda Palo Marcado,"{'type': 'Point', 'coordinates': [-73.864885, 3.688114]}"
Desminado militar en operaciones,ANTIOQUIA,5,ARGELIA,5055,2007,4,Incidente,Sin informacion,Rural,5.668889,-75.066667,Las Margaritas,"{'type': 'Point', 'coordinates': [-75.066667, 5.668889]}"
Desminado militar en operaciones,CALDAS,17,SAMANÁ,17662,2006,2,Incidente,Sin informacion,Rural,5.644167,-75.067778,Vereda El Congreso,"{'type': 'Point', 'coordinates': [-75.067778, 5.644167]}"
Desminado militar en operaciones,TOLIMA,73,RIOBLANCO,73616,2012,8,Incidente,Sin informacion,Rural,3.464722,-75.778889,Coordillera Buenos Aires,"{'type': 'Point', 'coordinates': [-75.778889, 3.464722]}"
Desminado militar en operaciones,ARAUCA,81,PUERTO RONDÓN,81591,2012,8,Incidente,Sin informacion,Rural,6.477778,-71.158889,Vereda La Charanga,"{'type': 'Point', 'coordinates': [-71.158889, 6.477778]}"
Desminado militar en operaciones,CAQUETA,18,FLORENCIA,18001,2012,8,Incidente,Sin informacion,Rural,1.744444,-75.444722,Vereda Norcacia,"{'type': 'Point', 'coordinates': [-75.444722, 1.744444]}"
Accidente por MAP,ANTIOQUIA,5,COCORNÁ,5197,2007,5,Accidente,Sin informacion,Rural,6.06226331656,-75.1921380582,Vereda La Palmirita,"{'type': 'Point', 'coordinates': [-75.1921380582, 6.06226331656]}"
Desminado militar en operaciones,CAQUETA,18,SAN VICENTE DEL CAGUÁN,18753,2012,8,Incidente,Sin informacion,Rural,2.574444,-74.845,Vereda Alto Avance Corregimiento De Guayabal,"{'type': 'Point', 'coordinates': [-74.845, 2.574444]}"
Desminado militar en operaciones,META,50,URIBE,50370,2012,8,Incidente,Sin informacion,Rural,2.783333,-74.210556,Vereda La Belleza,"{'type': 'Point', 'coordinates': [-74.210556, 2.783333]}"
Desminado militar en operaciones,TOLIMA,73,IBAGUÉ,73001,2012,8,Incidente,Sin informacion,Rural,4.418056,-75.285833,Vereda La Tigrera,"{'type': 'Point', 'coordinates': [-75.285833, 4.418056]}"
